"Search Parameters"	"More Info"	"Doubtful Runup"	"Country"	"Area"	"Location Name"	"Latitude"	"Longitude"	"Distance From Source (km)"	"Initial Wave Arrival Dy"	"Initial Wave Arrival Hr"	"Initial Wave Arrival Min"	"Travel Hours"	"Travel Minutes"	"Max Wave Arrival Day"	"Max Wave Arrival Hr"	"Max Wave Arrival Min"	"Max Water Height (m)"	"Max Inundation Distance (m)"	"Measurement Type"	"Period"	"First Motion"	"Deaths"	"Death Description"	"Missing"	"Missing Description"	"Injuries"	"Injuries Description"	"Damage $Mil"	"Damage Description"	"Houses Destroyed"	"Houses Destroyed Description"	"Houses Damaged"	"Houses Damaged Description"
"Tsunami ID = 2439"																																	
		"n"	"INDONESIA"	"ACEH"	"WEST COAST OF ACEH, SUMATRA"	5.44	95.241	244.53									29.98		5														
		"n"	"INDONESIA"	"ACEH"	"WEST COAST OF ACEH, SUMATRA"	5.478	95.246	248.417									12.39		4														
		"n"	"INDONESIA"	"ACEH"	"WEST COAST OF ACEH, SUMATRA"	5.452	95.242	245.774									30.4		4														
		"n"	"INDONESIA"	"ACEH"	"WEST COAST OF ACEH, SUMATRA"	5.452	95.243	245.743									15.77		4														
		"n"	"NEW ZEALAND"		"JACKSON BAY"	-43.9733	168.6161	8898.402	26	19	17	18	18				0.91		2	26													
		"n"	"INDONESIA"	"ACEH"	"CENTER OF BANDA ACEH, SUMATRA"	5.553	95.315	254.5									5.48		4														
		"n"	"INDIA"	"ANDAMAN AND NICOBAR"	"GREAT NICOBAR IS., NICOBAR ISLANDS"	7	93.833	464.927											1														
		"n"	"INDONESIA"	"ACEH"	"CENTER OF BANDA ACEH, SUMATRA"	5.541	95.282	254.1									4.7		4														
		"n"	"INDONESIA"	"ACEH"	"CENTER OF BANDA ACEH, SUMATRA"	5.556	95.284	255.652									12		4														
		"n"	"NEW ZEALAND"		"KAIKOURA"	-42.4129	173.7028	9264.794									0.5		2														
		"n"	"NEW ZEALAND"		"KAINGAROA, CHATHAM ISLAND"	-43.733	-176.268	10092.977									0.3		2														
		"n"	"USA"	"CA"	"MONTEREY, CA"	36.605	-121.888	14113.731	27	11	0						0.1		2														
		"n"	"CHILE"	"COPIAPO"	"CALDERA"	-27.0644	-70.8247	17024.216	27	3	16	26	17				0.11		2														
		"n"	"CHILE"	"ELQUI"	"COQUIMBO"	-29.95	-71.3353	16766.427	27	1	53	24	54				0.18		2														
		"n"	"CHILE"	"VALDIVIA"	"CORRAL"	-39.8783	-73.4228	15814.408	27	1	49	24	50				0.15		2														
		"n"	"CHILE"	"CHILOE"	"PUNTA CORONA"	-41.783	-73.88	15623.046	27	1	45						0.03		2	20													
		"n"	"INDIA"	"ANDHRA PRADESH"	"VISAKHAPATNAM"	17.65	83.28	2097.079	26	3	35	2	36				1.46		2		"R"								1				
		"n"	"INDONESIA"	"ACEH"	"CENTER OF BANDA ACEH, SUMATRA"	5.549	95.316	254.044									4.64		4														
		"n"	"INDONESIA"	"ACEH"	"CENTER OF BANDA ACEH, SUMATRA"	5.553	95.317	254.448									4.52		4														
		"n"	"INDONESIA"	"ACEH"	"CENTER OF BANDA ACEH, SUMATRA"	5.548	95.314	253.989									5.56		4														
		"n"	"SOUTH AFRICA"		"EAST LONDON"	-33.02	27.92	8179.422	26	12	28	11	29				0.64		2		"R"												
		"n"	"INDONESIA"	"ACEH"	"BANDA ACEH"	5.56988889	95.32963889	255.941									3.25		5														
		"n"	"INDONESIA"	"ACEH"	"BANDA ACEH"	5.56344444	95.31697222	255.571									5.2		5														
		"n"	"INDONESIA"	"ACEH"	"BANDA ACEH"	5.47838889	95.24544444	248.475									5.8		5														
		"n"	"INDONESIA"	"ACEH"	"BANDA ACEH"	5.60469444	95.38775	258.322									6.1		5														
		"n"	"THAILAND"	"PHANG NGA"	"NAM KHEM"	8.85111111	98.2675	667.836									7.5		5														
		"n"	"THAILAND"	"PHANG NGA"	"NAM KHEM"	8.85069444	98.27022222	667.914									8.4		5														
		"n"	"INDIA"	"ANDHRA PRADESH"	"VODAREVU"	15.7935	80.41338333	2183.007									2.69		5														
		"n"	"INDIA"	"PUDUCHERRY"	"PUTTUPATTNAM"	11.8603	79.81543333	2004.733									2.64		5														
		"n"	"INDIA"	"TAMIL NADU"	"DEVANAANPATTINAM"	11.74278333	79.78861667	2001.51									8.89		5														1
		"n"	"INDIA"	"TAMIL NADU"	"NAGAPATTINAM PORT"	10.76308333	79.8488	1949.479									5.16		5														
		"n"	"INDIA"	"TAMIL NADU"	"CUDDALORE, TALENGUDA"	11.76505556	79.79436111	2002.05									6	1000	5														1
		"n"	"INDIA"	"TAMIL NADU"	"NAGAPATTINAM, BEACH"	10.78208333	79.85161111	1950.048									12	3000	5														1
		"n"	"INDIA"	"TAMIL NADU"	"KANYAKUMARI, HARBOR"	8.07886111	77.55336111	2093.864									7	500	5														1
		"n"	"INDIA"	"TAMIL NADU"	"KANYAKUMARI, COLACHAL"	8.17519444	77.30627778	2122.834									11	2000	5														
		"n"	"SRI LANKA"		"POTTUVIL"	6.866667	81.81667	1604.989									6.1		4														
		"n"	"SRI LANKA"		"TANGALLE (TANGALLA)"	6.029367	80.79562	1697.298									3.24		4														
		"n"	"SRI LANKA"		"WELIGAMA"	5.968984	80.44682	1734.334									2.73		4										1		1		
		"n"	"SRI LANKA"		"DODANDUWA"	6.083717	80.14692	1769.13									3.6		4														
		"n"	"SRI LANKA"		"HIKKADUWA"	6.127517	80.10413	1774.588									4.2		4														
		"n"	"SRI LANKA"		"HIKKADUWA"	6.07736	80.06159	1778.342										34	5														
		"n"	"SRI LANKA"		"YALA"	6.16639	81.25503	1649.816									12.5	390	5										1		1		
		"n"	"SRI LANKA"		"WELLAWATTA"	6.52588	79.51413	1846.439									1.5	30.7	5														
		"n"	"SRI LANKA"		"PERALIYA"	6.147222	80.110228	1774.279											5										1				
		"n"	"SRI LANKA"		"NILAVELI"	8.683333	81.2	1726.95											5										1				1
		"n"	"MAURITIUS"		"PORT MATHURIN, RODRIGUES"	-19.684	63.4186	4365.416									1.52		4														
		"n"	"MAURITIUS"		"PORT MATHURIN, RODRIGUES"	-19.6809	63.4197	4365.136									1.59	334	5														
		"n"	"MAURITIUS"		"PORT MATHURIN, RODRIGUES"	-19.68	63.4214	4364.932									1.76		4														
		"n"	"MAURITIUS"		"SAINT-FRANCOIS, RODRIGUES"	-19.7026	63.4959	4359.65									1.16		5														
		"n"	"MAURITIUS"		"GRANDE BAIE, RODRIGUES"	-20.0005	57.5815	4913.91									1		5														
		"n"	"INDIA"	"KERALA"	"KOLLAM"	8.88	76.6	2217.402									4	1000	4														
		"n"	"YEMEN"		"ARHER QARIYAH"	12.64378	54.23122	4696.123									1.74	12	5														
		"n"	"YEMEN"		"BEDHOOLA"	12.32952	54.00735	4714.811									1.97	50.5	4														
		"n"	"YEMEN"		"MAHFARHAN"	12.40991	54.22666	4692.588									3.97	203.7	4														
		"n"	"YEMEN"		"MAHFARHAN"	12.40983	54.22685	4692.566									4.17	224	5										1	50	1		
		"n"	"INDIA"	"KERALA"	"ARATTUPUZHA, ALLAPUZHA"	10.43279	76.22622	2306.205											1			28	1										
		"n"	"THAILAND"		"THAI MUANG"	8.399	98.265	622.262									6.1	114	5														
		"n"	"THAILAND"		"BAN NOK NA"	8.999	98.257	682.389									12.6	136	5														
		"n"	"THAILAND"		"BAN PAK NAM"	9.951	98.596	793.878									1.2	0	5														
		"n"	"OMAN"		"SADAH"	17.04825	55.074817	4705.482									0.82	36	5														
		"n"	"OMAN"		"HASIK"	17.44945	55.270917	4696.378									1.04	4	5														
		"n"	"OMAN"		"DHALKUT"	16.703933	53.254117	4885.188									1.64		4														
		"n"	"OMAN"		"AL KABAH"	20.13718	57.81995	4526.128									1.5	72	5														
		"n"	"SOMALIA"		"XAAFUUN"	10.42168	51.26221	4985.654									5.67	230.6	5			179	3							812	3	400	3
		"n"	"SOMALIA"		"XAAFUUN"	10.42228	51.25936	4985.971									3.92	198	4														
		"n"	"INDONESIA"	"ACEH"	"PULAU BREUH, SUMATRA"	5.68139	95.06414	275.863									22.1	534.2	4														
		"n"	"INDONESIA"	"ACEH"	"JANTANG, SUMATRA"	5.27572	95.24976	226.849									18.1	476.3	4														
		"n"	"OMAN"		"RAS AL MADRAKAH"	18.97013	57.80364	4486.55									1.7	42	5														
		"n"	"OMAN"		"AL LABKI"	18.23859	56.56582	4587.522									2.3	447	5														
		"n"	"OMAN"		"SERBARAT"	17.93347	56.27334	4607.91									1.1	25	5														
		"n"	"SOMALIA"		"BANDARBEYLA"	9.49592	50.81331	5025.276									6.64	41.3	5														
		"n"	"SOMALIA"		"BANDARBEYLA"	9.49094	50.81599	5024.937									8.54	42.2	5														
		"n"	"SOMALIA"		"XAAFUUN"	10.42834	51.25541	4986.469									4.49	704	5														
		"n"	"SOMALIA"		"XAAFUUN-SPIT"	10.42494	51.19131	4993.414									4.87	305	5														
		"n"	"MADAGASCAR"		"AMDINGOZABE"	-15.06193	50.35913	5410.372									1.14	136	5														
		"n"	"MADAGASCAR"		"AMPAHANA"	-14.76483	50.22443	5413.891									2.53	50	5														
		"n"	"MADAGASCAR"		"SAMBAVA"	-14.2699	50.18163	5401.547									1.77	71	5														
		"n"	"MADAGASCAR"		"SAMBAVA"	-14.27062	50.18073	5401.664									1.91	30	5														
		"n"	"INDONESIA"	"ACEH"	"BUSUNG, SUMATRA"	2.38757	96.33693	115.856									3.1	82	5														
		"n"	"INDONESIA"	"NORTH SUMATRA"	"TELUK BANDERA, SUMATRA"	-0.51108	98.32702	504.774									1	100	4														
		"n"	"INDONESIA"	"ACEH"	"KUALA MEURISI, SUMATRA"	4.62082	95.63249	146.368									12.9	1820	5														
		"n"	"ANTARCTICA"		"DAVIS STATION (AUSTRALIA)"	-68.57	77.97	8094.634	26	13	10	12	11				0.47		2		"R"												
		"n"	"MADAGASCAR"		"SOANIERANA-IVONGO"	-16.91903	49.58707	5555.058									2	46	5														
		"n"	"MADAGASCAR"		"MANAKARA BE"	-22.14718	48.02309	5914.979									3.5	34	5														
		"n"	"MADAGASCAR"		"MANAKARA BE"	-22.14344	48.02286	5914.844									1.5	21	4														
		"n"	"MADAGASCAR"		"MANAKARA BE"	-22.14631	48.02324	5914.928									3.8	58	5														
		"n"	"MADAGASCAR"		"MANAKARA NORTH"	-22.03352	48.07116	5905.613									2.1	25	5														
		"n"	"MALDIVES"		"MADIFUSHI, THAA"	2.3575	73.35568	2503.628									2.35	40	4														
		"n"	"MALDIVES"		"KANDHOLHUDHOO, RAA"	5.61832	72.85583	2564.806									3.39	54	4														
		"n"	"MALDIVES"		"KANDHOLHUDHOO, RAA"	5.61757	72.8559	2564.792									3.05	59	4														
		"n"	"MALDIVES"		"EYDHAFUSHI, BAA"	5.10145	73.07278	2536.701									2.11	171	4														
		"n"	"MALDIVES"		"HINNAVARU, LHAVIYANI"	5.49297	73.4119	2502.274									1.3	309	4														
		"n"	"MALDIVES"		"HINNAVARU, LHAVIYANI"	5.49288	73.41188	2502.275									1.49	311	4										1				
		"n"	"MALDIVES"		"HINNAVARU, LHAVIYANI"	5.49195	73.4136	2502.077									1.24	128	4														
		"n"	"MALDIVES"		"MALE, N. MALE"	4.17208	73.50235	2484.612									1.15	82	4														1
		"n"	"MALDIVES"		"MALE, N. MALE"	4.16942	73.50581	2484.221									1.45	28	4														
		"n"	"MALDIVES"		"MALE, N. MALE"	4.1697	73.51338	2483.381									2.05	20	4														
		"n"	"MALDIVES"		"FONADHOO, LAAMU"	1.93235	73.6	2479.355									3.28		4			4	1										
		"n"	"TANZANIA"		"MATEMWE BEACH, ZANZIBAR"	-5.86848	39.35385	6362.638									2.9		5														
		"n"	"SOUTH AFRICA"		"ALL OF SOUTH AFRICA"												1.5		1			2	1										
		"n"	"COMOROS"		"HAJOHO, ANJOUAN"	-12.1209	44.48885	5933.119									2.3		5														
		"n"	"INDONESIA"	"ACEH"	"ACEH, SUMATRA"	5.556	95.236	257.022									12.3		5														
		"n"	"INDONESIA"	"ACEH"	"ACEH, SUMATRA"	5.485	95.228	249.71									19.7		5														
		"n"	"INDONESIA"	"ACEH"	"ACEH, SUMATRA"	5.558	95.235	257.264									20		5														
		"n"	"INDONESIA"	"ACEH"	"ACEH, SUMATRA"	5.432	95.235	243.867									22.6		5														
		"n"	"INDONESIA"	"ACEH"	"ACEH, SUMATRA"	5.465	95.242	247.155									24.1		5														
		"n"	"INDONESIA"	"ACEH"	"ACEH, SUMATRA"	5.472	95.243	247.869									27		5														
		"n"	"INDONESIA"	"ACEH"	"ACEH, SUMATRA"	5.354	95.243	235.347									29.6		5														
		"n"	"INDONESIA"	"ACEH"	"ACEH, SUMATRA"	5.456	95.246	246.077									35.7		5														
		"n"	"INDONESIA"	"ACEH"	"ACEH, SUMATRA"	5.351	95.246	234.933									40.2		5														
		"n"	"INDONESIA"	"ACEH"	"ACEH, SUMATRA"	5.566	95.341	255.238									3.7		5														
		"n"	"INDONESIA"	"ACEH"	"ACEH, SUMATRA"	5.562	95.326	255.184									4		5														
		"n"	"INDONESIA"	"ACEH"	"ACEH, SUMATRA"	5.566	95.327	255.589									4.6		5														
		"n"	"INDONESIA"	"ACEH"	"ACEH, SUMATRA"	5.533	95.304	252.643									5.7		5														
		"n"	"INDONESIA"	"ACEH"	"ACEH, SUMATRA"	5.579	95.351	256.396									6		5														
		"n"	"INDONESIA"	"ACEH"	"ACEH, SUMATRA"	5.594	95.371	257.544									6.3		5														
		"n"	"INDONESIA"	"ACEH"	"ACEH, SUMATRA"	5.487	95.264	248.842									7.1		5														
		"n"	"INDONESIA"	"ACEH"	"ACEH, SUMATRA"	5.575	95.325	256.609									8		5														
		"n"	"INDONESIA"	"ACEH"	"ACEH, SUMATRA"	5.553	95.304	254.789									9.3		5														
		"n"	"INDONESIA"	"ACEH"	"ACEH, SUMATRA"	5.547	95.301	254.226									9.5		5														
		"n"	"INDONESIA"	"ACEH"	"ACEH, SUMATRA"	5.614	95.398	259.105									9.8		5														
		"n"	"INDONESIA"	"ACEH"	"ACEH, SUMATRA"	5.59	95.389	256.702									10		5														
		"n"	"INDONESIA"	"ACEH"	"ACEH, SUMATRA"	5.489	95.264	249.055									10.1		5														
		"n"	"INDONESIA"	"ACEH"	"ACEH, SUMATRA"	5.536	95.282	253.565									10.2		5														
		"n"	"INDONESIA"	"ACEH"	"ACEH, SUMATRA"	5.576	95.327	256.666									11.3		5														
		"n"	"INDONESIA"	"ACEH"	"ACEH, SUMATRA"	5.577	95.329	256.723									12.4		5														
		"n"	"INDONESIA"	"ACEH"	"ACEH, SUMATRA"	5.532	95.289	252.943									12.7		5														
		"n"	"INDONESIA"	"ACEH"	"ACEH, SUMATRA"	5.539	95.256	254.623									14		5														
		"n"	"INDONESIA"	"ACEH"	"ACEH, SUMATRA"	5.539	95.257	254.594									14.8		5														
		"n"	"INDONESIA"	"ACEH"	"ACEH, SUMATRA"	5.611	95.39	258.955									16.6		5														
		"n"	"INDONESIA"	"ACEH"	"ACEH, SUMATRA"	5.479	95.245	248.553									16.7		5														
		"n"	"INDONESIA"	"ACEH"	"ACEH, SUMATRA"	5.479	95.242	248.644									16.7		5														
		"n"	"COMOROS"		"GNAMBO-YAMAORE, MOHELI"	-12.25638	43.67012	6023.276									2.2		5														
		"n"	"COMOROS"		"KOUNGOU, EAST, MAYOTTE"	-12.7348	45.20755	5873.386									2.95		5														
		"n"	"COMOROS"		"MTSAMBORO, MAYOTTE"	-12.69817	45.06762	5887.14									1.25		5														
		"n"	"MEXICO"	"BAJA CALIFORNIA"	"ENSENADA"	31.8484	-116.6181	14827						28	2	22	0.12		2														
		"n"	"FIJI"		"LAUTOKA"	-17.6	177.433	9236.488	27	0	10	23	11	27	14	3	0.05		2														
		"n"	"AUSTRALIA"		"PORT HEDLAND"	-20.316667	118.566667	3604.278	26	8	45	7	46	26	17	35	0.3		2														
		"n"	"SRI LANKA"		"TALAHENA"	7.155	79.828	1826.254									2.3		5														
		"n"	"SRI LANKA"		"MAHASEELAWA BEACH, YALA"	6.292	81.436	1632.702									8.4		5														
		"n"	"UK TERRITORY"		"SIGNY, SOUTH ORKNEY ISLANDS"	-60.717	-45.6	12859.535	26	18	38	17	39				0.26		2														
		"n"	"FRANCE"		"LES SABLES D'OLONNE"	46.496	-1.795	10329.029	27	9	0	32	1				0.29		2														
		"n"	"THAILAND"		"MAKHAM BAY, PHUKET"	7.87	98.417	578.109									1.39		5														
		"n"	"THAILAND"		"KHAO LAK"	8.661	98.25	647.846									9.71		5														
		"n"	"THAILAND"		"BAN NIANG BEACH"	8.675	98.242	648.896									9.5		5														
		"n"	"INDONESIA"	"ACEH"	"LHOK NGA, NW. COAST OF SUMATRA"	5.442	95.241	244.742									18.4		5														
		"n"	"INDONESIA"	"ACEH"	"LHOK NGA, NW. COAST OF SUMATRA"	5.499	95.226	251.259									21.7		5														
		"n"	"INDONESIA"	"ACEH"	"LHOONG, NW. COAST OF SUMATRA"	5.315	95.24	231.319									25.2		5														
		"n"	"INDONESIA"	"ACEH"	"LHOK NGA, NW. COAST OF SUMATRA"	5.461	95.245	246.639									28.2		5														
		"n"	"INDONESIA"	"ACEH"	"LHOONG, NW. COAST OF SUMATRA"	5.354	95.243	235.347									29.6		5														
		"n"	"MALAYSIA"		"SUNGAI BATU, PENANG IS."	5.28	100.239	533.001									1.8	60	4														1
		"n"	"BRAZIL"		"IMBITUBA PORT, SANTA CATARINA"	-28.217	-48.65	15360.696	27	3	0						0.6		2	30													
		"n"	"MALDIVES"		"NORTH MALE ATOLL, MALE IS."	4.17	73.517	2482.98									1.7	10	4														
		"n"	"MALDIVES"		"NORTH MALE ATOLL, MALE IS."	4.18	73.51	2483.785									1.7	10	4														
		"n"	"MALDIVES"		"LAAMU ATOLL, FONADHOO IS."	1.824	73.495	2491.871									3	30	4														
		"n"	"MALDIVES"		"LAAMU ATOLL, GAN IS."	1.923	73.551	2484.866									2.7	80	4														
		"n"	"MYANMAR (BURMA)"		"PALAUTONTON ISLAND"	10.026	98.512	798.079									2.5		5			1	1								1		
		"n"	"MYANMAR (BURMA)"		"MYOMA JETTY, KAWTHAUNG"	9.978	98.553	794.84									1.6		5														
		"n"	"SRI LANKA"		"TANGALLE (TANGALLA)"	6.031	80.799	1696.959									3.09		5														
		"n"	"INDONESIA"	"ACEH"	"SIMEULUE ISLAND"	2.558	96.308	97.841									4	2000	4														
		"n"	"INDONESIA"	"ACEH"	"LABUHAN BAKTI, SIMEULUE"	2.403	96.481	122.686										1500	4														1
		"n"	"INDONESIA"	"ACEH"	"SALUR, SIMEULUE"	2.442	96.243	105.88									1.5	500	4														
		"n"	"INDONESIA"	"ACEH"	"MEULABOH PORT, SUMATRA"	4.129	96.129	94.949									15	5000	4												1		
		"n"	"INDONESIA"	"ACEH"	"MEULABOH PORT, SUMATRA"	4.209	96.037	100.818									15		4														
		"n"	"INDONESIA"	"ACEH"	"ARONGHAN, MEULABOH, SUMATRA"	4.308	95.972	110.475										5000	4														
		"n"	"INDONESIA"	"ACEH"	"ARONGHAN, MEULABOH, SUMATRA"	4.297	95.948	108.98									15	5000	4														
		"n"	"INDONESIA"	"ACEH"	"ARONGHAN, MEULABOH, SUMATRA"	4.297	95.947	108.969									15	5000	4														
		"n"	"INDONESIA"	"ACEH"	"ARONGHAN, MEULABOH, SUMATRA"	4.3	95.987	109.808									9	5000	4														
		"n"	"INDONESIA"	"ACEH"	"SENEBU VILLAGE, SIMEULUE"	2.386	96.489	124.739										1500	4														1
		"n"	"SRI LANKA"		"SEENIGAMA"	6.201	80.064	1780.308									7		4														
		"n"	"SRI LANKA"		"S. COAST"	5.941	80.494	1728.689									5.5		4														
		"n"	"THAILAND"		"BAN TAM NANG"	8.993	98.412	688.647									0.7	0	5														
		"n"	"THAILAND"		"TA POU NOI"	7.834	98.421	574.868									2.6		5														
		"n"	"SRI LANKA"		"POTTUVIL"	6.874	81.844	1602.241									7	230	4														
		"n"	"SRI LANKA"		"OLUVIL"	7.289	81.866	1611.226									6	100	4														
		"n"	"SRI LANKA"		"KALLADY"	7.724	81.714	1640.471									6		4														
		"n"	"MALDIVES"		"MALE"	4.18	73.52	2482.675	26	4	14	3	15				1.08		2		"R"												
		"n"	"INDIA"	"TAMIL NADU"	"MARITIME BOARD PO, CUDDALORE"	11.70777778	79.775	2001.116									2.76	250	5														
		"n"	"BANGLADESH"		"ST. MARTIN'S ISLAND"	20.63	92.32	1953.406				2	12				0.31		2														
		"n"	"IRAN"		"POZM (24)"	25.35823	60.3135	4516.574									3.04		5														
		"n"	"IRAN"		"TANG"	25.3572	59.89457	4554.213									1.69	229	5										1				
		"n"	"INDIA"	"KERALA"	"THANGASSERI (QUILON)"	8.88277778	76.56888889	2220.788									3		4														
		"n"	"SEYCHELLES"		"ANSE VOLBERT, PRASLIN ISLAND"	-4.31433333	55.7442	4540.599									2	100	5														
		"n"	"SEYCHELLES"		"ANSE AUX PINS, MAHE ISLAND"	-4.70361667	55.52171667	4572.565									1.9	50	5														
		"n"	"SEYCHELLES"		"BEAU VALLON, MAHE ISLAND"	-4.60856667	55.43161667	4580.504									1.7	10	5														
		"n"	"AUSTRALIA"		"MOURILYAN"	-17.583333	146.083333	5977.869						27	12	10	0.05		2														
		"n"	"MALAYSIA"		"TANJUNG TOKONG (2C)"	5.46166667	100.3083333	548.369									2.61	18.3	5														
		"n"	"MALAYSIA"		"PANTAI KOK (MUTIARA BEACH RESORT)"	6.35	99.66666667	539.803									2.25	50.84	5														
		"n"	"MALAYSIA"		"PANTAI KOK (BERJAYA HOTEL)"	6.35	99.66666667	539.803									2.98	34.88	5														
		"n"	"INDIA"	"MAHARASHTRA"	"GEETANAGAR"	18.9145	72.8084	3044.495									3.1		5														
		"n"	"AUSTRALIA"		"FREMANTLE"	-32.055833	115.73944	4443.629	26	7	35	6	36	26	22	15	0.46		2														
		"n"	"URUGUAY"		"LA PALOMA"	-34.65	-54.15	15364.149	26	23	45	22	46	27	23	30	0.4		2														
		"n"	"INDONESIA"	"ACEH"	"WEST COAST OF ACEH, SUMATRA"	5.453	95.245	245.788									18.46		5														
		"n"	"USA"	"NJ"	"ATLANTIC CITY, NJ"	39.35	-74.417	15176.891	27	8	47	31	48				0.11		2														
		"n"	"USA"	"CA"	"SAN DIEGO, CA"	32.715	-117.174	14723.242	27	8	24	31	25				0.16		2														
		"n"	"NEW ZEALAND"		"WHITIANGA"	-36.833	-175.709	10092.744									0.25		2														
		"n"	"INDONESIA"	"NORTH SUMATRA"	"SIBOLGA, SUMATRA"	1.718	98.797	371.942									1.6		5														
		"n"	"INDONESIA"	"NORTH SUMATRA"	"BARUS, SUMATRA"	2.008	98.403	318.212									1.7		5														
		"n"	"INDONESIA"	"ACEH"	"SIGLI, ACEH, SUMATRA"	5.388	95.962	229.437									3.1		5														
		"n"	"INDONESIA"	"NORTH SUMATRA"	"MUAWE VILLAGE, NIAS ISLAND"	1.401	97.212	260.1									2.8		5														
		"n"	"INDONESIA"	"NORTH SUMATRA"	"SIROMBU, NIAS ISLAND"	0.951	97.421	314.278									4.65		5														
		"n"	"INDONESIA"	"NORTH SUMATRA"	"GUNUNGSITOLI, NIAS ISLAND"	1.2667	97.5667	296.037									1.5		5														
		"n"	"MALDIVES"		"HANIMAADHOO, HAA DHAALU"	6.749	73.168	2543.7									2.01		5														
		"n"	"MALDIVES"		"HULHUMALE, NORTH MALE"	4.189	73.535	2481.035									3.37		5														
		"n"	"MALDIVES"		"HULHUMALE, NORTH MALE"	4.19	73.538	2480.705									1.64		5														
		"n"	"MALDIVES"		"HULHUMALE, NORTH MALE"	4.201	73.541	2480.403									2.03		5														
		"n"	"MALDIVES"		"LAGUNA BEACH RESORT, SOUTH MALE"	4.121	73.436	2491.844									0.78		5														
		"n"	"MALDIVES"		"LAGUNA BEACH RESORT, SOUTH MALE"	4.123	73.438	2491.626									1.38		5														
		"n"	"MALDIVES"		"FANADHOO, LAAMU"	1.835	73.505	2490.671									3.22		5														
		"n"	"MALDIVES"		"FANADHOO, LAAMU"	1.849	73.511	2489.892									3.03		5														
		"n"	"MALDIVES"		"GAN, LAAMU"	1.921	73.549	2485.103									2.41		5														
		"n"	"MALDIVES"		"MANNDHOO, LAAMU"	1.876	73.526	2488.01									1.4		5														
		"n"	"MALDIVES"		"GAN, SEENU"	0.69	73.157	2541.486									1.79		5														
		"n"	"MALDIVES"		"MARADHOO, SEENU"	0.661	73.116	2546.402									1.98		5														
		"n"	"SRI LANKA"		"PAIYAGALA STATION"	6.522	79.978	1795.908									5.95		5														
		"n"	"INDONESIA"		"ALL OF INDONESIA"												50.9		5			167540	4					4451.6	4	141000	4		
		"n"	"MALAYSIA"		"KAMPUNG PAYA"	5.611	100.341	558.893									2.5	70	4														
		"n"	"MALAYSIA"		"PELANGI BEACH HOTEL, LANGKAWI"	6.301	99.72	541.141									1.5		4														
		"n"	"TANZANIA"		"ALL OF TANZANIA"												3.5		5			13	1										
		"n"	"MAURITIUS"		"RODRIGUES ISLAND, PORT MATHURIN"	-19.68024	63.42119	4364.964	26	6	40	5	41						2												1		
		"n"	"INDIA"	"TAMIL NADU"	"COVELONG BEACH (SOUTH)"	12.79111111	80.2525	2012.008										75	5														
		"n"	"INDIA"	"TAMIL NADU"	"MANAKUDY VILLAGE"	8.09	77.4875	2101.211										1500	5														
		"n"	"INDIA"	"TAMIL NADU"	"BESANT NAGAR (ELLIOTS BEACH)"	12.99638889	80.27055556	2021.792									2.76	200	5														
		"n"	"INDIA"	"TAMIL NADU"	"KORAIKUPPARN"	13.38138889	80.33416667	2037.95									3.2	200	5														
		"n"	"INDIA"	"TAMIL NADU"	"TIRUVANMIYUR BEACH"	12.97083333	80.265	2020.871									3.65	100	5														
		"n"	"INDIA"	"TAMIL NADU"	"AKKARAIPETTAI"	10.74277778	79.84944444	1948.508									4.02	500	5														
		"n"	"INDIA"	"TAMIL NADU"	"KAVERIPOOMPATTINAM"	11.14333333	79.85666667	1966.055									5.72	1000	5														
		"n"	"INDIA"	"TAMIL NADU"	"VENPURASHAM (NEAR MAMALLAPURAM)"	12.59833333	80.19083333	2007.237									5.74	200	5														
		"n"	"INDONESIA"	"ACEH"	"WEST COAST OF ACEH, SUMATRA"	5.456	95.245	246.107									25.05		4														
		"n"	"INDONESIA"	"ACEH"	"CENTER OF BANDA ACEH, SUMATRA"	5.553	95.315	254.5									5.35		4														
		"n"	"INDONESIA"	"ACEH"	"CENTER OF BANDA ACEH, SUMATRA"	5.551	95.304	254.575									6.26		4														
		"n"	"CANADA"	"BC"	"TOFINO (CLAYOQUOT),BRITISH COLUMBIA"	49.153	-125.913	12943.412	27	9	0	32	1				0.08		2														
		"n"	"INDONESIA"	"ACEH"	"CENTER OF BANDA ACEH, SUMATRA"	5.549	95.306	254.307									6.43		4														
		"n"	"INDONESIA"	"ACEH"	"CENTER OF BANDA ACEH, SUMATRA"	5.551	95.307	254.495									5.87		4														
		"n"	"INDONESIA"	"ACEH"	"CENTER OF BANDA ACEH, SUMATRA"	5.547	95.278	254.854									7.68		4														
		"n"	"INDONESIA"	"ACEH"	"WEST COAST OF ACEH, SUMATRA"	5.458	95.247	246.259									34.85		5														
		"n"	"INDONESIA"	"ACEH"	"WEST COAST OF ACEH, SUMATRA"	5.46	95.246	246.502									31.91		5														
		"n"	"CHILE"	"IQUIQUE"	"IQUIQUE"	-20.20457778	-70.14783056	17608.276	27	3	35	26	36				0.12		2														
		"n"	"AUSTRALIA"		"ROSSLYN BAY"	-23.161	150.79	6638.25									0.25		2														
		"n"	"NEW ZEALAND"		"MOTURIKI ISLAND"	-37.6304	176.186	9386.625									0.16		2														
		"n"	"USA"	"AK"	"ADAK, SWEEPER COVE, AK"	51.863	-176.632	9549.21	27	12	0						0.11		2														
		"n"	"USA"	"CA"	"POINT REYES, CA"	37.997	-122.975	13940.319									0.2		2	33													
		"n"	"USA"	"CA"	"SANTA MONICA, CA"	34.008	-118.5	14535.34	27	11	23	34	24				0.19		2														
		"n"	"CHILE"	"ANTOFAGASTA"	"ANTOFAGASTA"	-23.65	-70.404	17321.064	27	3	25	26	26				0.14		2														
		"n"	"INDIA"	"KERALA"	"KOCHI, KERALA"	9.97	76.27	2285.823	26	5	41	4	42				0.75		2		"R"												
		"n"	"INDONESIA"	"ACEH"	"WEST COAST OF ACEH, SUMATRA"	5.443	95.24	244.879									19.96		5														
		"n"	"INDONESIA"	"ACEH"	"CENTER OF BANDA ACEH, SUMATRA"	5.548	95.313	254.015									5.55		4														
		"n"	"INDONESIA"	"ACEH"	"BANDA ACEH"	5.57569444	95.34505556	256.184									3.55		5														
		"n"	"THAILAND"	"PHANG NGA"	"NAM KHEM"	8.86355556	98.27322222	669.349									4.2		5														
		"n"	"THAILAND"	"PHANG NGA"	"NAM KHEM"	8.81330556	98.26622222	663.953									5.12		5														
		"n"	"MALDIVES"		"LAAMU ATOLL, GAN IS."	1.942	73.544	2485.496									2		4														
		"n"	"INDIA"	"TAMIL NADU"	"KANNIYAKUMARI, KOLACHEL"	8.17	77.24	2129.799											1			300	3										
		"n"	"INDIA"	"TAMIL NADU"	"KALAPAKKOM"	12.50663333	80.15825	2005.361									2.34		5														
		"n"	"INDIA"	"TAMIL NADU"	"DEVANAANPATTINAM"	11.74953333	79.78888333	2001.817									2.19	160	5														
		"n"	"INDIA"	"TAMIL NADU"	"TARANGAMBADI"	11.027	79.85583333	1960.748									4.4	400	5														
		"n"	"INDIA"	"TAMIL NADU"	"ARCATTUTHURAI/VEDARAYAN"	10.39328333	79.8669	1931.479									3.36		5														
		"n"	"INDIA"	"ANDAMAN AND NICOBAR"	"SOUTH ANDAMAN"	11.49745	92.7062	969.15									6.11		5														
		"n"	"SRI LANKA"		"TRINCOMALEE"	8.561729	81.24202	1718.191									2.7		4														
		"n"	"SRI LANKA"		"TRINCOMALEE"	8.561729	81.24202	1718.191									5.9		4														
		"n"	"SRI LANKA"		"KATTATIVU"	7.68633	81.74025	1636.513									3.7		4														
		"n"	"SRI LANKA"		"KARATIVU"	7.364405	81.85432	1614.66									4.85		4														
		"n"	"SRI LANKA"		"MORATUWA"	6.76245	79.88353	1811.234									3.56		4														
		"n"	"SRI LANKA"		"PANADURA"	6.715483	79.90334	1808.069									4.24		5														
		"n"	"SRI LANKA"		"BOOSA"	6.04776	80.09014	1774.702									1.5	30	5										1		1		
		"n"	"SRI LANKA"		"TELWATTE"	6.11096	80.04268	1781.004										108	5														1
		"n"	"MAURITIUS"		"PORT MATHURIN, RODRIGUES"	-19.6795	63.4239	4364.68									1.64	85	5														
		"n"	"MAURITIUS"		"GRAND BAIE, RODRIGUES"	-19.6738	63.4492	4362.098									2.15		4														
		"n"	"MAURITIUS"		"COTTON BAY, RODRIGUES"	-19.6852	63.4963	4358.588									1.9		5														
		"n"	"MAURITIUS"		"SAINT-FRANCOIS, RODRIGUES"	-19.7026	63.4959	4359.65									2.7		4														
		"n"	"REUNION (FRENCH TERRITORY)"		"SAINTE-ROSE"	-21.1256	55.7869	5137.261									1.95		4														
		"n"	"INDIA"	"KERALA"	"ERNAKULAM"	9.98	76.28	2285.109									2.4	1000	5														
		"n"	"YEMEN"		"HAMHARITEN"	12.60813	54.31507	4686.505									1.69	30.1	5														
		"n"	"YEMEN"		"GHEBBAT"	12.61031	53.78379	4743.562									0.84	64.5	4														
		"n"	"YEMEN"		"DAIHAM"	12.60909	53.85832	4735.54									1.93	14.3	5														
		"n"	"SRI LANKA"		"ABALANGODA"	6.246	80.047	1782.999									6		4														
		"n"	"THAILAND"		"BAN BANG PHNG"	8.812	98.266	663.811									13.1	9	4														
		"n"	"THAILAND"		"BAN THUNG DAP"	9.028	98.257	685.341									19.6	30	4														
		"n"	"INDONESIA"	"ACEH"	"PANTERAJA, SUMATRA"	5.2611	96.18528	218.211									4.7	1000	5										1				
		"n"	"INDIA"	"TAMIL NADU"	"NAGAPATTINAM"	10.77	79.83	1951.669									10	1000	4			6051	4										
		"n"	"INDIA"	"TAMIL NADU"	"CHENNAI"	13.08389	80.27	2026.793									2	200	5														
		"n"	"INDIA"	"KERALA"	"ERNAKULAM, EDAVANAKKAD"	10.015	76.22	2292.547											1			5	1							50	1	350	3
		"n"	"OMAN"		"RAYSUT"	16.963667	53.999783	4814.379									1.71	88	5														
		"n"	"OMAN"		"HADBEEN"	17.205833	55.233183	4693.468									1.55	12	5														
		"n"	"OMAN"		"HASIK"	17.422067	55.287217	4693.933									0.83	4	5														
		"n"	"OMAN"		"HADBEEN"	17.1963	55.2185	4694.717									0.13	82	5														
		"n"	"OMAN"		"RAKHYUT"	16.7449	53.417333	4869.239									2.62	59	5														
		"n"	"INDONESIA"	"ACEH"	"JANTANG, SUMATRA"	5.27622	95.25139	226.849									19.7	664.6	5														
		"n"	"INDONESIA"	"ACEH"	"LHOK KRUET, SUMATRA"	4.90034	95.40256	182.226									17.9	491.6	5														
		"n"	"INDONESIA"	"NORTH SUMATRA"	"LHOK LEUPUNG, SUMATRA"	4.69137	95.53677	156.115									16.5	780.3	4														
		"n"	"OMAN"		"HAYTAM"	18.81316	56.92918	4569.139									1.3	25	5														
		"n"	"SOMALIA"		"EYL"	7.96542	49.84935	5119.604									6.36	226.7	5														
		"n"	"SOMALIA"		"FOAR"	10.31223	50.89717	5024.237									6.37	145.4	5														
		"n"	"SOMALIA"		"XAAFUUN"	10.4226	51.25969	4985.939									3.97	239.8	5														
		"n"	"MADAGASCAR"		"BENAREVIKA"	-14.1156	50.15953	5398.686									3.51	29	5														
		"n"	"MADAGASCAR"		"MAHAVELONA (FOUL POINTE)"	-17.68528	49.51823	5590.525									0.72	13	5														
		"n"	"INDONESIA"	"ACEH"	"KUALA MEURISI, SUMATRA"	4.6137	95.62491	145.737									13.5	644	4														
		"n"	"INDONESIA"	"ACEH"	"LANGI ISLAND, SUMATRA"	2.83054	95.76745	54.536									13.9	418.8	4														
		"n"	"SOUTH AFRICA"		"PORT ELIZABETH"	-33.96666	25.63333	8411.487	26	13	12	12	13				1.34		2		"R"												
		"n"	"MADAGASCAR"		"MANANJARY"	-21.26137	48.34547	5847.141									2.4	43	5														
		"n"	"MADAGASCAR"		"FARAFANGANA"	-22.80939	47.83716	5960.713									2.4	25	4														
		"n"	"MALDIVES"		"VILUFUSHI, THAA"	2.50322	73.30929	2507.999									2.77	74	4														
		"n"	"MALDIVES"		"VILUFUSHI, THAA"	2.50364	73.30961	2507.962									3.43	14	4														
		"n"	"MALDIVES"		"MADIFUSHI, THAA"	2.35608	73.3549	2503.723									2.56	82	4														
		"n"	"MALDIVES"		"KANDHOLHUDHOO, RAA"	5.6185	72.85565	2564.828									2.21	68	4														
		"n"	"MALDIVES"		"KANDHOLHUDHOO, RAA"	5.61768	72.85587	2564.796									2.66	60	4														
		"n"	"MALDIVES"		"KANDHOLHUDHOO, RAA"	5.61768	72.85587	2564.796									2.74	60	4														
		"n"	"MALDIVES"		"HINNAVARU, LHAVIYANI"	5.49373	73.41225	2502.242									1.15	263	4														
		"n"	"MALDIVES"		"HINNAVARU, LHAVIYANI"	5.49272	73.41178	2502.285									1.26	322	4														
		"n"	"MALDIVES"		"MALE, N. MALE"	4.17866	73.51416	2483.319									1.25	15	4														
		"n"	"MALDIVES"		"MALE, N. MALE"	4.1802	73.50963	2483.826									1.35		4														
		"n"	"TANZANIA"		"SILVER SANDS RESORT"	-6.65455	39.21232	6390.19									3.3		5														
		"n"	"TANZANIA"		"KIPEPEO BEACH, MAINLAND TANZANIA"	-6.85103	39.36145	6377.001									2.4		5			2	1										
		"n"	"COMOROS"		"NDROUDE, ILE DE LA TORTUE"	-11.41733	43.41175	6030.071									0.65		5														
		"n"	"INDONESIA"	"ACEH"	"ACEH, SUMATRA"	5.647	95.415	262.328									7		5														
		"n"	"INDONESIA"	"ACEH"	"ACEH, SUMATRA"	5.61	95.397	258.693									11		5														
		"n"	"INDONESIA"	"ACEH"	"ACEH, SUMATRA"	5.61	95.397	258.693									11.2		5														
		"n"	"INDONESIA"	"ACEH"	"ACEH, SUMATRA"	5.382	95.256	237.907									12.8		5														
		"n"	"INDONESIA"	"ACEH"	"ACEH, SUMATRA"	5.633	95.4	261.123									13.3		5														
		"n"	"INDONESIA"	"ACEH"	"ACEH, SUMATRA"	5.441	95.239	244.698									17.1		5														
		"n"	"INDONESIA"	"ACEH"	"ACEH, SUMATRA"	5.442	95.241	244.742									18.3		5														
		"n"	"INDONESIA"	"ACEH"	"ACEH, SUMATRA"	5.442	95.241	244.742									18.4		5														
		"n"	"INDONESIA"	"ACEH"	"ACEH, SUMATRA"	5.468	95.242	247.474									21.6		5														
		"n"	"INDONESIA"	"ACEH"	"ACEH, SUMATRA"	5.314	95.241	231.181									23.5		5														
		"n"	"INDONESIA"	"ACEH"	"ACEH, SUMATRA"	5.46	95.246	246.502									24.8		5														
		"n"	"INDONESIA"	"ACEH"	"ACEH, SUMATRA"	5.562	95.344	254.733									3.1		5														
		"n"	"INDONESIA"	"ACEH"	"ACEH, SUMATRA"	5.566	95.327	255.589									4.6		5														
		"n"	"INDONESIA"	"ACEH"	"ACEH, SUMATRA"	5.631	95.404	260.821									5		5														
		"n"	"INDONESIA"	"ACEH"	"ACEH, SUMATRA"	5.58	95.35	256.528									5.8		5														
		"n"	"INDONESIA"	"ACEH"	"ACEH, SUMATRA"	5.478	95.265	247.852									6		5														
		"n"	"INDONESIA"	"ACEH"	"ACEH, SUMATRA"	5.573	95.342	255.968									6.3		5														
		"n"	"INDONESIA"	"ACEH"	"ACEH, SUMATRA"	5.579	95.351	256.396									6.7		5														
		"n"	"INDONESIA"	"ACEH"	"ACEH, SUMATRA"	5.575	95.341	256.208									7.5		5														
		"n"	"INDONESIA"	"ACEH"	"ACEH, SUMATRA"	5.574	95.345	256.002									7.6		5														
		"n"	"INDONESIA"	"ACEH"	"ACEH, SUMATRA"	5.593	95.371	257.436									8.1		5														
		"n"	"INDONESIA"	"ACEH"	"ACEH, SUMATRA"	5.48	95.267	248.007									8.8		5														
		"n"	"INDONESIA"	"ACEH"	"ACEH, SUMATRA"	5.489	95.265	249.026									9		5														
		"n"	"INDONESIA"	"ACEH"	"ACEH, SUMATRA"	5.521	95.271	252.27									9		5														
		"n"	"INDONESIA"	"ACEH"	"ACEH, SUMATRA"	5.605	95.389	258.327									9		5														
		"n"	"INDONESIA"	"ACEH"	"ACEH, SUMATRA"	5.607	95.396	258.39									9		5														
		"n"	"INDONESIA"	"ACEH"	"ACEH, SUMATRA"	5.597	95.385	257.55									9.3		5														
		"n"	"INDONESIA"	"ACEH"	"ACEH, SUMATRA"	5.578	95.343	256.483									9.5		5														
		"n"	"INDONESIA"	"ACEH"	"ACEH, SUMATRA"	5.56	95.317	255.2									9.5		5														
		"n"	"INDONESIA"	"ACEH"	"ACEH, SUMATRA"	5.497	95.262	249.967									9.5		5														
		"n"	"INDONESIA"	"ACEH"	"ACEH, SUMATRA"	5.594	95.371	257.544									9.5		5														
		"n"	"INDONESIA"	"ACEH"	"ACEH, SUMATRA"	5.55	95.304	254.467									10.8		5														
		"n"	"INDONESIA"	"ACEH"	"ACEH, SUMATRA"	5.544	95.295	254.065									11.9		5														
		"n"	"INDONESIA"	"ACEH"	"ACEH, SUMATRA"	5.5	95.233	251.151									12		5														
		"n"	"INDONESIA"	"ACEH"	"ACEH, SUMATRA"	5.473	95.255	247.615									13		5														
		"n"	"INDONESIA"	"ACEH"	"ACEH, SUMATRA"	5.502	95.229	251.486									14.4		5														
		"n"	"INDONESIA"	"ACEH"	"ACEH, SUMATRA"	5.479	95.242	248.644									16.8		5														
		"n"	"INDONESIA"	"ACEH"	"ACEH, SUMATRA"	5.547	95.236	256.063									18.9		5														
		"n"	"INDONESIA"	"ACEH"	"ACEH, SUMATRA"	5.546	95.234	256.016									19.3		5														
		"n"	"COMOROS"		"MIRINGONI, MOHELI"	-12.304	43.63465	6028.236									3.5		5														1
		"n"	"COMOROS"		"ACOUA, MAYOTTE"	-12.72528	45.05615	5889.077									2.4		5														
		"n"	"COMOROS"		"CHICONI, MAYOTTE"	-12.8364	45.11225	5886.168									2.45		5														
		"n"	"ARGENTINA"		"MAR DEL PLATA 2"	-38.035599	-57.531101	15310.608	27	0	9	23	10	27	6	42	0.3		2														
		"n"	"AUSTRALIA"		"KING BAY"	-20.64	116.755	3497.077	26	7	50	6	51	26	14	0	0.45		2														
		"n"	"SOUTH AFRICA"		"PORT NOLLOTH"	-29.25	16.87	9127.829	26	16	1	15	2	27	3	52	0.25		2		"R"												
		"n"	"USA"	"AK"	"SITKA, AK"	57.052	-135.342	11900.95	27	18	15	41	16				0.04		2	48													
		"n"	"THAILAND"		"KARON BEACH (CENTRAL PART), PHUKET"	7.842	98.297	568.977									4.49		5														
		"n"	"THAILAND"		"LEAM HIM, PHUKET"	7.943	98.401	584.288									0.72		5														
		"n"	"THAILAND"		"BANG RONG PIER, PHUKET"	8.047	98.419	595.322									1.47		5														
		"n"	"THAILAND"		"PATONG BEACH, PHUKET"	7.884	98.292	572.801									5.09		5														
		"n"	"THAILAND"		"NAI YANG BEACH, PHUKET"	8.087	98.3	593.074									4.07		5														
		"n"	"THAILAND"		"KHAO LAK"	8.637	98.251	645.473									8.71		5														
		"n"	"THAILAND"		"KHAO LAK"	8.683	98.244	649.793									10.62		5														
		"n"	"THAILAND"		"KHAO LAK"	8.304	98.275	613.282									4.28		5														
		"n"	"THAILAND"		"KATA NOI BEACH, PHUKET"	7.803	98.303	565.51									3.88		5														
		"n"	"THAILAND"		"RAWAI BEACH, PHUKET"	7.772	98.328	563.849									2.43		5														
		"n"	"INDONESIA"	"ACEH"	"WEST BANDA ACEH, SUMATRA"	5.564	95.235	257.904									12.6		5														
		"n"	"MALDIVES"		"NORTH MALE ATOLL, DHIFFUSHI IS."	4.444	73.714	2462.053									2.3	70	4														
		"n"	"MYANMAR (BURMA)"		"KYET LUT BEACH"	13.559	98.14	1160.442									1.9		5														
		"n"	"MYANMAR (BURMA)"		"TANNYOPADA VILLAGE"	10.093	98.515	805.086									1.7		5														
		"n"	"MYANMAR (BURMA)"		"KAING THAUNG ISLAND, PAGODA"	15.734	95.064	1376.264									1.9		5														
		"n"	"THAILAND"		"TRANG"	7.5	99.3	599.89	26	4	40	3	41				0.63		2		"F"												
		"n"	"SRI LANKA"		"GIN RIVER"	6.088	80.183	1765.265									1.75		5														
		"n"	"INDONESIA"	"ACEH"	"TANJUN RAYA, SIMEULUE"	2.565	96.288	96.043									1.9		4														
		"n"	"SRI LANKA"		"MARATUWA"	6.748	79.89	1810.218									5.5	70	4														
		"n"	"SRI LANKA"		"BENTOTA NORTH"	6.424	79.995	1792.09									5.5	130	4														
		"n"	"SRI LANKA"		"JAYADUWA/HABARADUWA"	5.994	80.309	1749.838									3		4														
		"n"	"THAILAND"		"KO KOH KAO PORT"	8.872	98.275	670.283									3.7	43	5														
		"n"	"THAILAND"		"BAN PAK NAM FISHERING PORT"	9.946	98.598	793.452									1.7	0	5														
		"n"	"THAILAND"		"KA YU HARBOR (BAN LA ONG)"	9.781	98.554	774.755									0.32		4														
		"n"	"THAILAND"		"RAMSON"	9.602	98.469	752.889									1.08		4														
		"n"	"SRI LANKA"		"KARATIVU"	7.384	81.848	1615.908									7		4														
		"n"	"SRI LANKA"		"KALMUNAI"	7.404	81.842	1617.136									6	35	4														
		"n"	"SRI LANKA"		"KALKUDAH"	7.919	81.566	1662.323									7	500	4														
		"n"	"SRI LANKA"		"CHINA BAY"	8.572	81.192	1723.769									3.2	10	4														
		"n"	"THAILAND"		"KURABURI"	9.23	98.38	711.198	26	3	32	2	33				0.7		2		"F"												
		"n"	"THAILAND"		"TARUTAO"	6.7	99.65	563.201	26	3	27	2	28				0.89		2		"F"												
		"n"	"INDIA"	"TAMIL NADU"	"KAMESHWARAM"	10.62416667	79.85388889	1942.81									6.64	600	5														
		"n"	"INDIA"	"TAMIL NADU"	"DEVANAMPATTINAM FISHING VILLAGE"	11.74722222	79.78833333	2001.757									11.25	1000	5														
		"n"	"BANGLADESH"		"AKILPOOR, BANSBARIA"	22.4	91.8	2156.313									2.4		1														
		"n"	"INDIA"	"KERALA"	"VIZHINJAM (TRIVANDRUM)"	8.37638889	76.99222222	2161.729									2.5		4														
		"n"	"INDIA"	"KERALA"	"DHARMADAM (TELLICHERY)"	11.76916667	75.47222222	2433.76									2.5		4														
		"n"	"SEYCHELLES"		"ANSE PETITE COUR, PRASLIN ISLAND"	-4.31043333	55.73578333	4541.443									2.5	225	5														
		"n"	"INDIA"	"ANDAMAN AND NICOBAR"	"BAMBOO FLAT, PORT BLAIR"	11.70072222	92.71541667	989.787									3.8	18.4	5														
		"n"	"INDIA"	"ANDAMAN AND NICOBAR"	"HARBOUR AREA, HAVELOCK ISLAND"	12.03502778	92.98316667	1014.877									3.1	300	5														
		"n"	"INDIA"	"ANDAMAN AND NICOBAR"	"CHIDIYATOPU, PORT BLAIR"	11.49930556	92.71663889	968.93									3.2	500	5														
		"n"	"INDIA"	"ANDAMAN AND NICOBAR"	"SOUTH POINT MAGAR PAREL, PORT BLAIR"	11.65238889	92.70291667	985.273									10	500	5														
		"n"	"INDIA"	"ANDAMAN AND NICOBAR"	"NETAJI NAGAR, LITTLE ANDAMAN"	10.63344444	92.55172222	887.612									8	61.1	5														
		"n"	"AUSTRALIA"		"BUNDABERG"	-24.767	152.38	6848.494						27	17	50	0.1		2														
		"n"	"AUSTRALIA"		"CAPE FERGUSON"	-19.277	147.058	6133.984						28	0	14	0.04		2														
		"n"	"AUSTRALIA"		"PORT DOUGLAS"	-16.483333	145.466667	5878.561						28	13	30	0.07		2														
		"n"	"INDIA"	"MAHARASHTRA"	"JUHU BEACH"	19.0832	72.8251	3052.857									1.6		5														
		"n"	"NEW ZEALAND"		"KAPITI ISLAND"	-40.842	174.938	9335.751						27	21	30	0.23		2														
		"n"	"CHILE"	"VALPARAISO"	"SAN FELIX"	-26.283	-80.117	17427.101	27	1	57	24	58	27	7	34	0.05		2														
		"n"	"INDIA"	"ORISSA"	"PARADIP, ORISSA"	20.26	86.7	2121.497	26	3	27	2	28				1.59		2		"R"												
		"n"	"INDONESIA"	"ACEH"	"WEST COAST OF ACEH, SUMATRA"	5.46	95.246	246.502									21.97		5														
		"n"	"MOZAMBIQUE"		"MOZAMBIQUE"	-15.05	40.75	6402.879											5														
		"n"	"THAILAND"		"TA POU NOI"	7.834	98.421	574.868									4.7		5														
		"n"	"AUSTRALIA"		"COCOS ISLAND (KEELING)"	-12.117	96.883	1710.49	26	3	17	2	18				0.3		2		"R"												
		"n"	"KENYA"		"LAMU"	-2.282	40.909	6144.981	26	9	52	8	53				0.5		2		"R"												
		"n"	"MALDIVES"		"KEYODHOO, VAAVU"	3.461	73.549	2478.665									2		5														
		"n"	"MALDIVES"		"KEYODHOO, VAAVU"	3.461	73.549	2478.665									2.7		5														
		"n"	"MALDIVES"		"GEMENDHOO, DHAALU"	2.798	73.026	2538.198									3.17		5														
		"n"	"MALDIVES"		"GAN, LAAMU"	1.942	73.54	2485.94									2.75		5														
		"n"	"SRI LANKA"		"KOGGALA AIRPORT"	5.992	80.319	1748.71									9.34		5														
		"n"	"SRI LANKA"		"GALLE PORT SOUTH BEACH"	6.034	80.237	1758.408									4.79		5														
		"n"	"SRI LANKA"		"GALLE CITY OFFICE"	6.034	80.215	1760.813									3.93		5														
		"n"	"SRI LANKA"		"KAHAWA"	6.165	80.09	1776.81									10.04		5														
		"n"	"SRI LANKA"		"MORATUWA BEACH"	6.755	79.89	1810.37									4.4		5														
		"n"	"SRI LANKA"		"MORATUWA BEACH"	6.756	79.89	1810.392									3.8		5														
		"n"	"SEYCHELLES"		"ALL OF SEYCHELLES"												4.4		5			2	1					31	4				3
		"n"	"MALAYSIA"		"SUNGAI KUALA, MELAKA RIVER"	6.201	99.718	534.317									4	1000	4			1	1										
		"n"	"INDIA"	"TAMIL NADU"	"VGP GOLDEN BEACH"	12.91111111	80.25527778	2018.43									3.2	100	5														
		"n"	"INDIA"	"TAMIL NADU"	"ONDIKUPPAM (KASIMEDU)"	13.15416667	80.30472222	2027.567									3.81	100	5														
		"n"	"INDIA"	"TAMIL NADU"	"PERUNTHURAVU"	12.3775	80.09194444	2004.761									4.59	50	5														
		"n"	"INDIA"	"TAMIL NADU"	"VELANGANNI"	10.67472222	79.84722222	1945.709									4.9	1500	5														
		"n"	"INDONESIA"	"ACEH"	"WEST COAST OF ACEH, SUMATRA"	5.449	95.242	245.455									24.35		4														
		"n"	"NEW ZEALAND"	"CANTERBURY"	"LYTTELTON"	-43.6058	172.7222	9211.487	27	1	59	25	0				0.48		2	54													
		"n"	"NEW ZEALAND"		"PORT NAPIER"	-39.4757	176.9201	9479.375	26	22	11	21	12				0.61		2	34													
		"n"	"NEW ZEALAND"	"BAY OF PLENTY"	"TAURANGA"	-37.6410885	176.1811791	9386.377	27	2	11	25	12				0.1		2	70													
		"n"	"INDONESIA"	"ACEH"	"CENTER OF BANDA ACEH, SUMATRA"	5.549	95.311	254.175									5.98		4														
		"n"	"INDONESIA"	"ACEH"	"CENTER OF BANDA ACEH, SUMATRA"	5.55	95.31	254.309									6.47		4														
		"n"	"INDONESIA"	"ACEH"	"CENTER OF BANDA ACEH, SUMATRA"	5.553	95.304	254.789									6.76		4														
		"n"	"INDIA"	"ANDAMAN AND NICOBAR"	"CAR NICOBAR ISLAND, NICOBAR ISLANDS"	9.167	92.783	730.801											1														
		"n"	"INDONESIA"	"ACEH"	"WEST COAST OF ACEH, SUMATRA"	5.477	95.245	248.341									12.42		4														
		"n"	"INDONESIA"	"ACEH"	"WEST COAST OF ACEH, SUMATRA"	5.405	95.254	240.411									20.13		4														
		"n"	"INDONESIA"	"ACEH"	"SABANG, SUMATRA"	5.826	95.347	283.203									3.02		4														
		"n"	"USA TERRITORY"	"AS"	"PAGO PAGO, AMERICAN SAMOA"	-14.2766	-170.689	10480.383									0.01		2														
		"n"	"RUSSIA"	"KURIL ISLANDS"	"SEVERO-KURILSK, PARAMUSHIR ISLAND"	50.68333	156.13	7668.226	27	13	30	36	31				0.15		2														
		"n"	"TONGA"		"NUKUALOFA (NUKU'ALOFA)"	-21.138	-175.1815	10040.921									0.05		2														
		"n"	"EL SALVADOR"	"SONSONATE"	"ACAJUTLA"	13.5739	-89.8383	18036.322	27	8	55	31	56				0.16		2														
		"n"	"ECUADOR"	"GALAPAGOS ISLANDS"	"BALTRA ISLAND"	-0.433	-90.283	19277.528	27	6	26	29	27				0.18		2														
		"n"	"INDONESIA"	"ACEH"	"CENTER OF BANDA ACEH, SUMATRA"	5.553	95.317	254.448									4.56		4														
		"n"	"INDONESIA"	"ACEH"	"CENTER OF BANDA ACEH, SUMATRA"	5.553	95.317	254.448									4.67		4														
		"n"	"INDONESIA"	"ACEH"	"CENTER OF BANDA ACEH, SUMATRA"	5.548	95.316	253.936									4.73		4														
		"n"	"INDONESIA"	"ACEH"	"CENTER OF BANDA ACEH, SUMATRA"	5.549	95.312	254.148									5.61		4														
		"n"	"INDONESIA"	"ACEH"	"BANDA ACEH"	5.5615	95.31683333	255.366									6		5														
		"n"	"INDONESIA"	"ACEH"	"BANDA ACEH"	5.58175	95.36402778	256.382									2.7		5														
		"n"	"THAILAND"	"PHANG NGA"	"NAM KHEM"	8.85563889	98.26780556	668.308									3.8		5														
		"n"	"GHANA"		"TAKORADI"	4.88	-1.74	10828.108	27	1	38	24	39	28	0	15	0.21		2		"F"												
		"n"	"TANZANIA"		"DAR-ES-SALAAM FISHING HARBOR, FERRY"	-6.81845	39.30085	6383.107									2.4		5				1						1				
		"n"	"SOUTH AFRICA"		"SIMON'S BAY"	-34.19	18.44	9066.208	26	14	18	13	19	27	19	21	0.43		2		"R"												
		"n"	"INDIA"	"ANDHRA PRADESH"	"PALIPAN-KOTTAPATNAM"	15.43795	80.18091667	2179.23									3.14		5														
		"n"	"INDIA"	"TAMIL NADU"	"CHENNAI"	13.10436667	80.30988333	2024.246									5.56		5			310	3						1				
		"n"	"INDIA"	"TAMIL NADU"	"KOVALAM"	12.79091667	80.25005	2012.227									3.15		5														
		"n"	"INDIA"	"TAMIL NADU"	"PERANGIPETTINAM"	11.51638333	79.76631667	1992.652									2.9		5														
		"n"	"INDIA"	"TAMIL NADU"	"PERANGIPETTINAM"	11.51608333	79.76578333	1992.69									2.8		5														
		"n"	"INDIA"	"TAMIL NADU"	"PERANGIPETTINAM"	11.5078	79.76653333	1992.217									2.82		5														
		"n"	"INDIA"	"ANDAMAN AND NICOBAR"	"SOUTH ANDAMAN"	11.65525	92.75661667	983.496									2.82		5														
		"n"	"INDIA"	"TAMIL NADU"	"KANYAKUMARI, MEELAMANAKUDY"	8.10802778	77.40372222	2110.655									12	2000	5												1		
		"n"	"SRI LANKA"		"TRINCOMALEE"	8.579356	81.2138	1721.761									3.2		4														
		"n"	"SRI LANKA"		"IBRAL NAGAR NALALEVI"	8.660272	81.21918	1724.118									4.5		4														
		"n"	"SRI LANKA"		"IBRAL NAGAR NALALEVI"	8.661204	81.21674	1724.405									4.45		4														
		"n"	"SRI LANKA"		"IBRAL NAGAR NALALEVI"	8.661829	81.2165	1724.453									3.8		4														
		"n"	"SRI LANKA"		"HAMBANTOTA"	6.12845	81.12752	1662.96									6.1		4														
		"n"	"SRI LANKA"		"KAMBURUGAMA"	5.94005	80.49195	1728.897									2.4		4														
		"n"	"SRI LANKA"		"KATTANKUDY"	7.683333	81.733333	1637.152											5										1				1
		"n"	"SRI LANKA"		"NINTAVUR"	7.00588056	81.00222222	1696.12											5														
		"n"	"MAURITIUS"		"PETIT GRAVIER, RODRIGUES"	-19.7289	63.4825	4362.39									3.8	24	9														
		"n"	"REUNION (FRENCH TERRITORY)"		"SAINT-GILLES"	-21.0546	55.2247	5185.903									1.3		4														
		"n"	"REUNION (FRENCH TERRITORY)"		"SAINT-GILLES"	-21.0555	55.2244	5185.976									1.3		4														
		"n"	"REUNION (FRENCH TERRITORY)"		"SAINT-GILLES"	-21.0555	55.2239	5186.022									0.85		4														
		"n"	"REUNION (FRENCH TERRITORY)"		"LE PORT"	-20.9333	55.3242	5170.657									2.74		5														
		"n"	"REUNION (FRENCH TERRITORY)"		"SAINT-PIERRE"	-21.345	55.4771	5176.936									1.4		4														
		"n"	"REUNION (FRENCH TERRITORY)"		"SAINT-PIERRE"	-21.3443	55.4765	5176.956									0.8		4														
		"n"	"INDIA"	"KERALA"	"ALLAPUZHA"	9.49	76.33	2264.126									3	1000	5														
		"n"	"YEMEN"		"BEDHOOLA"	12.33822	54.02038	4713.554									3.75	37	5														
		"n"	"YEMEN"		"RAS ARSAL, SOCOTRA ISLAND"												2	26.5	5														
		"n"	"INDIA"	"TAMIL NADU"	"SOTHAVILAI"	8.078	77.541	2095.167											1			200	3										
		"n"	"INDONESIA"	"ACEH"	"IDI, SUMATRA"	4.96653	97.77177	280.444									2.5	500	5										1		1		1
		"n"	"INDIA"	"TAMIL NADU"	"NAGAPATTINAM, NAGORE"	10.82	79.85	1951.911											1												4		4
		"n"	"INDIA"	"ANDHRA PRADESH"	"PRAKASHAM"	15.5	80.05	2194.615											1			35	1										
		"n"	"INDIA"	"TAMIL NADU"	"NAGAPATTINAM, AKKARAIPETTAI"	10.7667	79.8333	1951.192											1										1				1
		"n"	"OMAN"		"RAYSUT"	16.965483	54.000433	4814.359									1.24	154	5														
		"n"	"OMAN"		"SALALAH"	16.976017	54.01005	4813.636									3.25	71	5														
		"n"	"OMAN"		"TAQAH"	17.033617	54.403883	4774.396									2.44	73	5														
		"n"	"OMAN"		"HADBEEN"	17.1963	55.2185	4694.717									1.85	22	4														
		"n"	"SOMALIA"		"XAAFUUN"	10.42135	51.25944	4985.952									3.72	97.3	4														
		"n"	"INDONESIA"	"ACEH"	"PULAU BREUH, SUMATRA"	5.68139	95.06414	275.863									22.1	652.3	5														
		"n"	"SOMALIA"		"BANDARBEYLA"	9.49649	50.81292	5025.324									6.84	63.3	5														
		"n"	"SOMALIA"		"BANDARBEYLA"	9.49755	50.81258	5025.371									6.14	44.4	5														
		"n"	"SOMALIA"		"BANDARBEYLA"	9.49407	50.8142	5025.162									7.94	45.9	5														
		"n"	"SOMALIA"		"BANDARBEYLA"	9.49186	50.81546	5025.003									8.64	45.2	5														
		"n"	"SOMALIA"		"BARGAAL"	11.28567	51.07848	5015.92									6.49	132.3	5														
		"n"	"SOMALIA"		"BARGAAL"	11.28311	51.07861	5015.873									5.09	83.9	5														
		"n"	"MADAGASCAR"		"VOHEMAR"	-13.3536	50.01563	5388.798									3.19	24	5														
		"n"	"MADAGASCAR"		"MAHAMBO"	-17.47523	49.46362	5588.074									1.17	7	5														
		"n"	"INDONESIA"	"NORTH SUMATRA"	"LHOK LEUPUNG, SUMATRA"	4.69189	95.5372	156.16									14	856	4														
		"n"	"INDONESIA"	"ACEH"	"LANGI VILLAGE, SUMATRA"	2.82344	95.75611	55.542									10.9	294.2	4														
		"n"	"INDONESIA"	"ACEH"	"LANGI, SUMATRA"	2.82056	95.75992	55.774									7.3	334.7	5														
		"n"	"INDONESIA"	"NORTH SUMATRA"	"AFULU, SUMATRA"	1.26169	97.23066	273.946									3.9	84.1	4														
		"n"	"MADAGASCAR"		"FENOARIVO (FENERIVE)"	-17.38093	49.41523	5589.39									2.5	6	5														
		"n"	"MADAGASCAR"		"TOLAGNARO"	-25.03627	46.9926	6136.626									2	7	5														
		"n"	"MADAGASCAR"		"BETANTY"	-25.56952	45.53097	6295.179									5.4	28	5														
		"n"	"MADAGASCAR"		"MANANJARY"	-21.22907	48.35131	5845.244									2.4	21	5														
		"n"	"MADAGASCAR"		"MANAKARA BE"	-22.14344	48.02286	5914.844									2	10	4														
		"n"	"MADAGASCAR"		"ANTALAHA"	-14.9005	50.28227	5412.632									2.1		4														
		"n"	"MALDIVES"		"VILUFUSHI, THAA"	2.50194	73.31004	2507.923									3.44	5	4														
		"n"	"MALDIVES"		"MADIFUSHI, THAA"	2.35708	73.35457	2503.754									2.1	140	4														
		"n"	"MALDIVES"		"KOLHUFUSHI, MEEMU"	2.77343	73.42473	2493.981									2.91	129	4			16	1						1				
		"n"	"MALDIVES"		"KANDHOLHUDHOO, RAA"	5.61765	72.85588	2564.795									2.82	57	4														
		"n"	"MALDIVES"		"KANDHOLHUDHOO, RAA"	5.61762	72.8563	2564.748									3.1	15	4			3	1										
		"n"	"MALDIVES"		"EYDHAFUSHI, BAA"	5.10248	73.07215	2536.778									2	229	4														
		"n"	"MALDIVES"		"HINNAVARU, LHAVIYANI"	5.49195	73.4136	2502.077									1.04	128	4														
		"n"	"MALDIVES"		"HULHULE, N. MALE"	4.19453	73.52565	2482.088									1.22	104	4														1
		"n"	"TANZANIA"		"JAMBIANI RED MONKEY LODGE, ZANZIBAR"	-6.3427	39.55717	6347.552									3.25		5										1				1
		"n"	"TANZANIA"		"KIZIMKAZI, ZANZIBAR"	-6.45608	39.47358	6358.473									1.5		5														
		"n"	"COMOROS"		"KOUHANI, GRANDE COMORE"	-11.57127	43.39837	6035.202									4		5														
		"n"	"COMOROS"		"MTSAMDOU - HILL, GRANDE COMORE"	-11.6086	43.39197	6036.786									5.6		5														
		"n"	"COMOROS"		"DOMONI - NORTH, ANJOUAN"	-12.25923	44.53119	5932.201									1.9		5														
		"n"	"INDONESIA"	"ACEH"	"ACEH, SUMATRA"	5.649	95.416	262.525									7.2		5														
		"n"	"INDONESIA"	"ACEH"	"ACEH, SUMATRA"	5.609	95.398	258.563									7.7		5														
		"n"	"INDONESIA"	"ACEH"	"ACEH, SUMATRA"	5.443	95.241	244.848									15.5		5														
		"n"	"INDONESIA"	"ACEH"	"ACEH, SUMATRA"	5.492	95.231	250.362									15.5		5														
		"n"	"INDONESIA"	"ACEH"	"ACEH, SUMATRA"	5.251	95.253	224.133									16.7		5														
		"n"	"INDONESIA"	"ACEH"	"ACEH, SUMATRA"	5.486	95.228	249.816									17.5		5														
		"n"	"INDONESIA"	"ACEH"	"ACEH, SUMATRA"	5.472	95.238	248.022									20.2		5														
		"n"	"INDONESIA"	"ACEH"	"ACEH, SUMATRA"	5.476	95.238	248.447									20.7		5														
		"n"	"INDONESIA"	"ACEH"	"ACEH, SUMATRA"	5.451	95.243	245.637									29.7		5														
		"n"	"INDONESIA"	"ACEH"	"ACEH, SUMATRA"	5.59	95.392	256.635									4.1		5														
		"n"	"INDONESIA"	"ACEH"	"ACEH, SUMATRA"	5.57	95.334	255.843									4.7		5														
		"n"	"INDONESIA"	"ACEH"	"ACEH, SUMATRA"	5.595	95.385	257.333									6.2		5														
		"n"	"INDONESIA"	"ACEH"	"ACEH, SUMATRA"	5.594	95.371	257.544									6.6		5														
		"n"	"INDONESIA"	"ACEH"	"ACEH, SUMATRA"	5.536	95.305	252.938									7.1		5														
		"n"	"INDONESIA"	"ACEH"	"ACEH, SUMATRA"	5.594	95.371	257.544									7.2		5														
		"n"	"INDONESIA"	"ACEH"	"ACEH, SUMATRA"	5.614	95.399	259.084									7.3		5														
		"n"	"INDONESIA"	"ACEH"	"ACEH, SUMATRA"	5.48	95.243	248.72									7.6		5														
		"n"	"INDONESIA"	"ACEH"	"ACEH, SUMATRA"	5.571	95.328	256.102									7.8		5														
		"n"	"INDONESIA"	"ACEH"	"ACEH, SUMATRA"	5.557	95.315	254.93									8.1		5														
		"n"	"INDONESIA"	"ACEH"	"ACEH, SUMATRA"	5.552	95.309	254.55									8.1		5														
		"n"	"INDONESIA"	"ACEH"	"ACEH, SUMATRA"	5.594	95.372	257.521									8.1		5														
		"n"	"INDONESIA"	"ACEH"	"ACEH, SUMATRA"	5.53	95.286	252.812									8.2		5														
		"n"	"INDONESIA"	"ACEH"	"ACEH, SUMATRA"	5.583	95.351	256.827									8.8		5														
		"n"	"INDONESIA"	"ACEH"	"ACEH, SUMATRA"	5.559	95.309	255.302									9.2		5														
		"n"	"INDONESIA"	"ACEH"	"ACEH, SUMATRA"	5.501	95.246	250.865									10		5														
		"n"	"INDONESIA"	"ACEH"	"ACEH, SUMATRA"	5.479	95.249	248.433									10.2		5														
		"n"	"INDONESIA"	"ACEH"	"ACEH, SUMATRA"	5.572	95.325	256.286									10.4		5														
		"n"	"INDONESIA"	"ACEH"	"ACEH, SUMATRA"	5.575	95.326	256.583									10.5		5														
		"n"	"INDONESIA"	"ACEH"	"ACEH, SUMATRA"	5.593	95.367	257.528									10.6		5														
		"n"	"INDONESIA"	"ACEH"	"ACEH, SUMATRA"	5.562	95.317	255.415									10.8		5														
		"n"	"INDONESIA"	"ACEH"	"ACEH, SUMATRA"	5.594	95.335	258.405									10.8		5														
		"n"	"INDONESIA"	"ACEH"	"ACEH, SUMATRA"	5.588	95.361	257.129									10.8		5														
		"n"	"INDONESIA"	"ACEH"	"ACEH, SUMATRA"	5.549	95.302	254.413									11.2		5														
		"n"	"INDONESIA"	"ACEH"	"ACEH, SUMATRA"	5.527	95.276	252.77									12.2		5														
		"n"	"INDONESIA"	"ACEH"	"ACEH, SUMATRA"	5.61	95.397	258.693									13.4		5														
		"n"	"INDONESIA"	"ACEH"	"ACEH, SUMATRA"	5.489	95.233	249.982									13.5		5														
		"n"	"INDONESIA"	"ACEH"	"ACEH, SUMATRA"	5.593	95.336	258.272									15		5														
		"n"	"INDONESIA"	"ACEH"	"ACEH, SUMATRA"	5.507	95.26	251.092									15.4		5														
		"n"	"INDONESIA"	"ACEH"	"ACEH, SUMATRA"	5.478	95.246	248.417									17.2		5														
		"n"	"INDONESIA"	"ACEH"	"ACEH, SUMATRA"	5.478	95.24	248.599									19.5		5														
		"n"	"INDONESIA"	"ACEH"	"ACEH, SUMATRA"	5.555	95.236	256.915									19.6		5														
		"n"	"INDONESIA"	"ACEH"	"ACEH, SUMATRA"	5.494	95.235	250.452									29		5														
		"n"	"COMOROS"		"DJOYEZI, MOHELI"	-12.30595	43.7766	6013.255									2.8		5														
		"n"	"COMOROS"		"MTSANGAMBOUA, MAYOTTE"	-12.69002	45.11142	5882.306									2		5														
		"n"	"COMOROS"		"MTSAHARA, MAYOTTE"	-12.68162	45.08042	5885.346									2.95		5														
		"n"	"COMOROS"		"SADA, MAYOTTE"	-12.84942	45.09867	5887.949									1.3		5														
		"n"	"SRI LANKA"		"HAMBANTOTA"	6.135	81.135	1662.273									8.8		5														
		"n"	"SOUTH AFRICA"		"CAPE TOWN"	-33.91	18.43	9061.87	26	15	0	14	1	27	14	1	0.44		2		"F"												
		"n"	"UK"		"NEWLYN, CORNWALL, ENGLAND"	50.1	-5.5536	10537.946	27	7	45						0.22		2	60													
		"n"	"UK TERRITORY"		"ST. HELENA"	-15.917918	-5.714394	11355.776	27	2	22	25	23	28	5	53	0.02		2	45	"F"												
		"n"	"THAILAND"		"MOODONG CANAL, PHUKET"	7.842	98.375	573.136									3.15		5														
		"n"	"THAILAND"		"PHALAI VILLAGE, PHUKET"	7.839	98.373	572.739									2.75		5														
		"n"	"THAILAND"		"CHALONG BAY PIER, PHUKET"	7.819	98.403	572.443									3.62		5														
		"n"	"THAILAND"		"PHI PHI DON (SOUTH COAST)"	7.748	98.772	587.11									4.58		5														
		"n"	"THAILAND"		"PATONG BEACH, PHUKET"	7.892	98.298	573.893									5.02		5														
		"n"	"THAILAND"		"KHAO LAK"	8.734	98.225	654.097									4.48		5														
		"n"	"THAILAND"		"TAP LAM NAVY BASE"	8.57	98.224	637.497									3.8		5														
		"n"	"THAILAND"		"BAN NIANG BEACH"	8.671	98.243	648.538									7.6		5														
		"n"	"MALAYSIA"		"KUALA TRIANG"	6.361	99.709	544.238										500	4														
		"n"	"ANTARCTICA"		"SYOWA STATION (JAPAN)"	-69.007778	39.570278	9072.314	26	13	40	12	41				0.39		2		"R"												
		"n"	"MALDIVES"		"NORTH MALE ATOLL, MALE IS."	4.169	73.506	2484.198									1.8	40	4														
		"n"	"MALDIVES"		"NORTH MALE ATOLL, MALE IS."	4.179	73.514	2483.338									1.3	70	4														
		"n"	"MALDIVES"		"NORTH MALE ATOLL, MALE IS."	4.179	73.513	2483.449									1.4	10	4														
		"n"	"MALDIVES"		"LAAMU ATOLL, GAN IS."	1.923	73.55	2484.977									2.7	10	4														
		"n"	"MALDIVES"		"NORTH MALE ATOLL, HURAA IS."	4.333	73.599	2474.389									2.4	15	4														
		"n"	"MYANMAR (BURMA)"		"SANN LAN VILLAGE"	13.94	98.076	1200.145									2.9		5														
		"n"	"MYANMAR (BURMA)"		"KONNAMAING CHAUNGWA VILLAGE"	10.036	98.524	799.594									1.9		5			1	1						1	8	1		
		"n"	"SRI LANKA"		"POLHENA"	5.936	80.526	1725.103									2.68		5														
		"n"	"INDONESIA"	"ACEH"	"LABUHAN BAKTI, SIMEULUE"	2.407	96.483	122.449									4	1500	4														
		"n"	"INDONESIA"	"ACEH"	"LABUHAN BAKTI, SIMEULUE"	2.402	96.481	122.777									2.5	1500	4												1		
		"n"	"INDONESIA"	"ACEH"	"KUALA BUBAN BAY, MEULABOH, SUMATRA"	4.208	96.039	100.754									10	5000	4														
		"n"	"INDONESIA"	"ACEH"	"KUALA TADU, MEULABOH, SUMATRA"	3.966	96.31	87.935									15	5000	4														
		"n"	"SRI LANKA"		"KALUTARA NORTH"	6.606	79.949	1800.793									4	80	4														
		"n"	"SRI LANKA"		"AHANGAMA"	5.974	80.361	1743.805									3	50	4														
		"n"	"SRI LANKA"		"HAMBANTOTA"	6.118	81.098	1665.975									10		4														
		"n"	"THAILAND"		"BAN AO LUK TUM"	9.203	98.272	703.831									8.6	74	4														
		"n"	"THAILAND"		"RAMSON"	9.602	98.47	752.931									4.9	329	4														
		"n"	"THAILAND"		"TA POU NOI"	7.834	98.422	574.923									2.53		4														
		"n"	"SRI LANKA"		"AKKARAIPATTU"	7.209	81.86	1609.585									4.5	200	4														
		"n"	"SRI LANKA"		"CHEDDIPALAYAM"	7.584	81.79	1628.077									6		4														
		"n"	"SRI LANKA"		"IRRAKKAKANDI"	8.725	81.177	1730.86									4	100	4														
		"n"	"SRI LANKA"		"NILAVELI"	8.677	81.203	1726.408									5		4														
		"n"	"SRI LANKA"		"COLOMBO"	6.9483	79.8533	1818.659	26	3	49	2	50				1.5		2		"R"												
		"n"	"INDIA"	"TAMIL NADU"	"NAGORE"	10.82222222	79.84916667	1952.094									5.81	1000	5														
		"n"	"INDIA"	"TAMIL NADU"	"SILVER BEACH, DEVANAMPATTINAM"	11.74722222	79.78805556	2001.784									7.55	1000	5														
		"n"	"INDIA"	"TAMIL NADU"	"PORTO NOVA"	11.49111111	79.76555556	1991.51									2.32	1500	5														
		"n"	"IRAN"		"KONARAK"	25.35383	60.40205	4508.403									3.38	26	5														
		"n"	"IRAN"		"SURGALM"	25.56746	58.20059	4717.71									2.18	21	5														
		"n"	"SEYCHELLES"		"ANSE VOLBERT, PRASLIN ISLAND"	-4.31238333	55.73978333	4541.044									1.9	100	5														
		"n"	"INDIA"	"ANDAMAN AND NICOBAR"	"VIJAYA NAGAR, HAVELOCK ISLAND"	12.01330556	93.008	1011.745									1.7	200	5														
		"n"	"INDIA"	"ANDAMAN AND NICOBAR"	"RADHA NAGAR, HAVELOCK ISLAND"	11.97930556	92.95172222	1010.122									2	100	5														
		"n"	"INDIA"	"ANDAMAN AND NICOBAR"	"WANDOOR JETTY (2), PORT BLAIR"	11.59077778	92.60744444	982.696									2.4	300	5														
		"n"	"INDIA"	"ANDAMAN AND NICOBAR"	"PASSENGER JETTY 2, LITTLE ANDARNAN"	10.58166667	92.58166667	881.042									13.1	143.6	5														
		"n"	"SOUTH AFRICA"		"STRUISBAAI"	-34.798	20.051	8932.64									1.5		1		"F"												
		"n"	"SEYCHELLES"		"ANSE ROYALE NORTH, MAHE ISLAND"												3.8	100	5														
		"n"	"AUSTRALIA"		"SYDNEY"	-33.85	151.233	7108.931	26	18	45	17	46	27	8	30	0.1		2														
		"n"	"AUSTRALIA"		"MOOLOOLABA"	-26.68	153.12	6987.376						27	13	30	0.1		2														
		"n"	"AUSTRALIA"		"CAIRNS"	-16.91666	145.78333	5925.124						27	16	41	0.05		2														
		"n"	"MALAYSIA"		"TANJUNG BUNGAH (3A)"	5.47016667	100.2776667	545.709									2.31	18.38	5														
		"n"	"MALAYSIA"		"YAN (KG. K.S. LIMAU)"	5.88333333	100.35	573.976									1.23	12.9	5														
		"n"	"MALAYSIA"		"KOTA K. MUDA"	5.56666667	100.3333333	555.938									3.8	100.52	5														
		"n"	"MALAYSIA"		"PANTAI ACHEH"	5.4	100.1833333	532.93									2.51	13.4	5														
		"n"	"MALAYSIA"		"PANTAI CHENANG (PELANGI HOTEL)"	6.28333333	99.71666667	539.663									3.75	54.72	5														
		"n"	"AUSTRALIA"		"ALBANY"	-35.033333	117.883333	4829.111	26	8	30	7	31	27	8	20	0.19		2														
		"n"	"INDIA"	"MAHARASHTRA"	"VORLI VILLAGE"	19.0198	72.8161	3049.948									3.3		5														
		"n"	"NEW ZEALAND"		"MARSDEN POINT"	-35.842	174.5	9207.358	27	0	40	23	41	27	17	0	0.08		2														
		"n"	"BRAZIL"		"SANTOS"	-23.991667	-46.301667	15364.063	27	0	30	23	31	27	16	5	0.4		2														
		"n"	"NEW ZEALAND"		"BLUFF HARBOR"	-46.589	168.329	8950.332	26	19	23	18	24				0.22		2	37													
		"n"	"INDONESIA"	"ACEH"	"WEST COAST OF ACEH, SUMATRA"	5.482	95.236	249.146									15.42		4														
		"n"	"CANADA"	"BC"	"VICTORIA, BRITISH COLUMBIA"	48.425	-123.372	13134.721	27	14	20	37	21				0.06		2														
		"n"	"CANADA"	"BC"	"BELLA BELLA, BRITISH COLUMBIA"	52.163	-128.143	12602.964	27	10	20	33	21				0.05		2														
		"n"	"CANADA"	"BC"	"BAMFIELD, BRITISH COLUMBIA"	48.837	-125.137	13009.004	27	13	45						0.03		2														
		"n"	"INDIA"	"KARNATAKA"	"MANGALORE, KARNATAKA"	12.9	74.85	2543.238											1														
		"n"	"INDONESIA"	"ACEH"	"CENTER OF BANDA ACEH, SUMATRA"	5.553	95.316	254.474									3.96		4														
		"n"	"INDIA"	"TAMIL NADU"	"RAMESWARAM, TAMIL NADU"	9.3	79.317	1944.928											1														
		"n"	"INDONESIA"	"NORTH SUMATRA"	"PASARSORKAM, SUMATRA"	1.871	98.565	341.198									1		5														
		"n"	"INDONESIA"	"ACEH"	"SIGLI, ACEH, SUMATRA"	5.387	95.964	229.338									4.4		5														
		"n"	"MALDIVES"		"KULHUDHUFFUSHI, HAA DHAALU"	6.622	73.069	2552.775									1.92		5														
		"n"	"MALDIVES"		"ENBODOO VILLAGE, SOUTH MALE"	4.084	73.513	2483.207									1.18		5														
		"n"	"MALDIVES"		"KEYODHOO, VAAVU"	3.461	73.55	2478.554									2.89		5														
		"n"	"MALDIVES"		"RINBUDHOO, DHAALU"	2.926	72.894	2552.438									3.18		5														
		"n"	"MALDIVES"		"GAN, LAAMU"	1.933	73.552	2484.678									2.31		5														
		"n"	"MALDIVES"		"GAN, LAAMU"	1.932	73.551	2484.796									2.71		5														
		"n"	"MALDIVES"		"GAN, LAAMU"	1.923	73.55	2484.977									2.1		5														
		"n"	"MALDIVES"		"GAN, LAAMU"	1.898	73.537	2486.615									2.08		5														
		"n"	"MALDIVES"		"KADDHOO, LAAMU"	1.858	73.519	2488.931									1.28		5														
		"n"	"MALDIVES"		"HITHADHOO, SEENU"	0.629	73.11	2547.494									1.95		5														
		"n"	"INDONESIA"	"ACEH"	"RHITING, ACEH, SUMATRA"	5.429	95.234	243.58									48.86	70	5														
		"n"	"MALDIVES"		"ALL OF MALDIVES"												4.43		5			108	3					470.1	4	8074	4		
		"n"	"USA TERRITORY"	"VI"	"ST. CROIX: LIMETREE"	17.697	-64.753	16866.682	27	5	17	28	18				0.02		2														
		"n"	"AUSTRALIA"		"DELAMBRE IS., DAMPIER ARCHIPELAGO"	-20.45	117.08	3505.118									0.3		1														
		"n"	"OMAN"		"SALALAH"	16.941	54.008	4812.942	26	8	8	7	9				1.31		2		"R"												
		"n"	"MALAYSIA"		"TANJUNG BUNGAH, PENANG IS."	5.467	100.277	545.491									2.5		4												1		
		"n"	"MALAYSIA"		"KAMPUNG TEPI SUNGAI"	5.58	100.338	557.058									3	400	4			11	1										1
		"n"	"MAURITIUS"		"PORT LOUIS HARBOUR"	-20.1573	57.5041	4929.088	26	7	46	6	47				0.98		2														
		"n"	"INDIA"	"TAMIL NADU"	"NORTH OF MAMALLAPURAM"	12.67555556	80.21611111	2009.065										100	5														
		"n"	"INDIA"	"TAMIL NADU"	"MAMALLAPURAM (SHORE TEMPLE)"	12.61416667	80.1975	2007.469										150	5														
		"n"	"INDIA"	"TAMIL NADU"	"PONDICHERRY BEACH"	11.93611111	79.83638889	2006.502										25	5														
		"n"	"INDIA"	"TAMIL NADU"	"WEST OF KALLIMODU"	10.50166667	79.86194444	1936.65										400	5														
		"n"	"INDIA"	"TAMIL NADU"	"KANNIYAKUMARI BEACH"	8.09027778	77.55833333	2093.627										700	5														
		"n"	"INDIA"	"TAMIL NADU"	"KOLACHEL PORT"	8.19027778	77.25138889	2129.105										800	5														
		"n"	"INDIA"	"TAMIL NADU"	"MARINA BEACH"	13.04027778	80.28	2023.39									2.23	200	5														
		"n"	"INDIA"	"TAMIL NADU"	"ATIRAMPATTINAM"	10.31333333	79.39555556	1975.866									2.97	1000	5														
		"n"	"INDIA"	"TAMIL NADU"	"TIRUMULLAIVASAL"	11.24194444	79.84361111	1971.965									5.22	1000	5														
		"n"	"INDONESIA"	"ACEH"	"WEST COAST OF ACEH, SUMATRA"	5.445	95.242	245.03									21.65		4														
		"n"	"INDONESIA"	"ACEH"	"WEST COAST OF ACEH, SUMATRA"	5.475	95.237	248.371									16.63		4														
		"n"	"INDONESIA"	"ACEH"	"WEST COAST OF ACEH, SUMATRA"	5.461	95.245	246.639									23.51		5														
		"n"	"NEW ZEALAND"		"GISBORNE"	-38.6754	178.023	9562.01	26	19	5	18	6				0.39		2	47													
		"n"	"INDONESIA"	"ACEH"	"CENTER OF BANDA ACEH, SUMATRA"	5.553	95.315	254.5									5.52		4														
		"n"	"USA"	"FL"	"TRIDENT PIER, FL"	28.415	-80.593	16472.638	27	9	11	32	12				0.17		2														
		"n"	"USA TERRITORY"	"VI"	"ST. THOMAS: CHARLOTTE AMALIE"	18.333	-64.917	16827.245	27	5	41	28	42				0.09		2														
		"n"	"INDONESIA"	"ACEH"	"CENTER OF BANDA ACEH, SUMATRA"	5.554	95.319	254.503									5.01		4														
		"n"	"CANADA"	"NS"	"HALIFAX, NOVA SCOTIA"	44.667	-63.583	14312.129	27	8	30	31	31				0.22		2	45													
		"n"	"THAILAND"		"KRABI"	8.07	98.87	622.848	26	3	45	2	46				0.84		2		"F"												
		"n"	"INDONESIA"	"ACEH"	"CENTER OF BANDA ACEH, SUMATRA"	5.55	95.308	254.361									6.78		4														
		"n"	"INDONESIA"	"ACEH"	"WEST COAST OF ACEH, SUMATRA"	5.451	95.243	245.637									21.56		5														
		"n"	"INDONESIA"	"ACEH"	"SIGLI, ACEH, SUMATRA"	5.389	95.96	229.536									4.4		4														
		"n"	"INDONESIA"	"ACEH"	"KRUENG RAYA PORT, SUMATRA"	5.596	95.526	254.739									5.1		4														
		"n"	"USA"	"HI"	"HILO, HAWAII, HI"	19.7303	-155.0553	11880.503	27	3	30	26	31				0.09		2														
		"n"	"USA"	"CA"	"PORT SAN LUIS, CA"	35.17666	-120.755	14294.524	27	12	17	35	18				0.27		2														
		"n"	"CHILE"	"CONCEPCION"	"TALCAHUANO"	-36.6953	-73.1063	16140.93	27	1	35	24	36				0.22		2														
		"n"	"NEW ZEALAND"		"NELSON"	-41.2613	173.27278	9206.111	27	0	5	23	6				0.64		2	45													
		"n"	"INDONESIA"	"ACEH"	"CENTER OF BANDA ACEH, SUMATRA"	5.553	95.317	254.448									4.7		4														
		"n"	"INDONESIA"	"ACEH"	"BANDA ACEH"	5.54686111	95.31169444	253.927									4		5														
		"n"	"INDONESIA"	"ACEH"	"BANDA ACEH"	5.56055556	95.3075	255.508									8		5														
		"n"	"INDONESIA"	"ACEH"	"BANDA ACEH"	5.55736111	95.28555556	255.755									9		5														
		"n"	"THAILAND"	"PHANG NGA"	"NAM KHEM"	8.84202778	98.27602778	667.295									1.55		5														
		"n"	"MYANMAR (BURMA)"		"THIRIMYAING QUARTER, KAWTHAUNG"	10.001	98.535	796.453									2.6		5			8	1						1			83	2
		"n"	"KENYA"		"MALINDI"	-3.233	40.083	6247.098											5			1	1										
		"n"	"INDONESIA"	"ACEH"	"ACEH, SUMATRA"	5.433	95.236	243.942									26.1		5														
		"n"	"INDIA"	"ANDHRA PRADESH"	"MYPADU-NELLORE"	14.50525	80.17853333	2119.773									4.53		5														
		"n"	"INDIA"	"TAMIL NADU"	"PULICAT"	13.3836	80.33278333	2038.206									2.67	160	5														
		"n"	"INDIA"	"TAMIL NADU"	"KOVALAM"	12.78718333	80.25343333	2011.702									3.35		5														
		"n"	"INDIA"	"TAMIL NADU"	"DEVANAANPATTINAM"	11.74293333	79.78716667	2001.659									2.51		5														
		"n"	"INDIA"	"ANDAMAN AND NICOBAR"	"SOUTH ANDAMAN"	11.67183333	92.73825	985.918									2.84		5														
		"n"	"INDIA"	"TAMIL NADU"	"TUTICORIN, PORT"	8.74961111	78.19652778	2044.274									3	200	5														
		"n"	"SRI LANKA"		"CHINA BAY-MUTUR"	8.492397	81.19206	1720.941									3.35		4														
		"n"	"SRI LANKA"		"NINTO"	7.343535	81.86083	1613.357									4.5		4														
		"n"	"SRI LANKA"		"MANKERI"	8.013957	81.48953	1673.476									5.5	134.7	4														
		"n"	"SRI LANKA"		"KALMUNAI KUDDI"	7.422988	81.83044	1618.928									7	110	4														
		"n"	"SRI LANKA"		"DEHIWALA"	6.877667	79.8564	1816.721									3.48		5														
		"n"	"SRI LANKA"		"PAYAGALA"	6.521217	79.97835	1795.854									5.04		5										1				1
		"n"	"MAURITIUS"		"GRAND BAIE, RODRIGUES"	-19.6738	63.4492	4362.098									2.43		4														
		"n"	"MAURITIUS"		"COTTON BAY, RODRIGUES"	-19.685	63.4963	4358.576									1.07	147	5														
		"n"	"MAURITIUS"		"PETIT GRAVIER, RODRIGUES"	-19.7281	63.4833	4362.272									1.54		5														
		"n"	"MAURITIUS"		"ANSE GOELANDS, RODRIGUES"	-19.7072	63.3793	4370.271									1		5														
		"n"	"MAURITIUS"		"BAIE-AUX-HUITRES, RODRIGUES"	-19.6912	63.4074	4366.834									2.15	191	5														
		"n"	"INDIA"	"TAMIL NADU"	"KANYAKUMARI"	8.078	77.541	2095.167									10	400	4										1				
		"n"	"YEMEN"		"BEDHOOLA"	12.32906	54.00783	4714.751									3.87	8.2	5														
		"n"	"YEMEN"		"SHAZHOR"	12.47117	54.41113	4673.82									5.7	27.2	5										1	2	1		
		"n"	"INDIA"	"TAMIL NADU"	"SILVER BEACH, CUDDALORE"	11.75	79.75	2005.634											1			37	1						2				
		"n"	"THAILAND"		"BAN KO DAM"	9.277	98.386	716.235									1.1	0	5														
		"n"	"INDONESIA"	"ACEH"	"KREUNG RAYA, SUMATRA"	5.589153	95.36097	257.254									5	1000	4										1				
		"n"	"INDIA"	"TAMIL NADU"	"CUDDALORE"	11.75	79.75	2005.634									4	250	5														
		"n"	"INDIA"	"TAMIL NADU"	"CUDDALORE"	11.75	79.75	2005.634									9	250	4														
		"n"	"INDIA"	"TAMIL NADU"	"NAGAPATTINAM, VELANKANNI"	10.7	79.8	1951.562										1000	1			2000	4										1
		"n"	"THAILAND"		"PHUKET"	7.83	98.42	574.429	26	2	55	1	56				1.11		2		"F"												
		"n"	"OMAN"		"SADAH"	17.049483	55.072883	4705.715									0.21	58	5														
		"n"	"OMAN"		"SHANNAH"	20.74635	58.73264	4459.541									1.05		4														
		"n"	"OMAN"		"SOUTH CAPE, MASIRAH"	20.16627	58.63723	4446.688											5														
		"n"	"OMAN"		"AN NAJDAH"	20.84741	58.7371	4463.049									0.4	4	5														
		"n"	"OMAN"		"MAHWAT ISLAND"	20.57478	58.17527	4507.44									0.7	13	5														
		"n"	"OMAN"		"RAS AL MADRAKAH"	18.9703	57.80395	4486.525									1.8	32	5														
		"n"	"INDONESIA"	"ACEH"	"LHOK KRUET, SUMATRA"	4.9001	95.40208	182.215									17.1	437.2	4														
		"n"	"INDONESIA"	"ACEH"	"LHOK KRUET, SUMATRA"	4.89754	95.40444	181.871									16.7	275.1	4														
		"n"	"SOMALIA"		"EYL"	7.96001	49.8454	5120.007									6.32	216.3	5														
		"n"	"SOMALIA"		"FOAR"	10.30845	50.89774	5024.134									5.97	44	5														
		"n"	"INDONESIA"	"NORTH SUMATRA"	"LHOK LEUPUNG, SUMATRA"	4.69205	95.53774	156.164									12.2	903.3	5														
		"n"	"FRENCH SOUTHERN AND ANTARCTIC TERRITORIES"		"ILE SAINT-PAUL"	-38.72	77.54	5020.66	26	7	30	6	30				0.08		2		"R"												
		"n"	"FRENCH SOUTHERN AND ANTARCTIC TERRITORIES"		"KERGUELEN"	-49.35	70.22	6337.042	26	10	0	9	0				0.34		2		"R"												
		"n"	"MADAGASCAR"		"SOANIERANA-IVONGO"	-16.91903	49.58707	5555.058									2.23	20	4														
		"n"	"MADAGASCAR"		"MANAKATAFANA"	-17.06165	49.52432	5566.615									1.92	22	5														
		"n"	"MADAGASCAR"		"ANKARAMANY"	-24.43317	47.30677	6080.866									2.7	35	5														
		"n"	"MADAGASCAR"		"MANANJARY"	-21.24501	48.34824	5846.198									2.2	28	4														
		"n"	"MADAGASCAR"		"MANAKARA NORTH"	-22.13989	48.02431	5914.556									2.3	43	5														
		"n"	"MADAGASCAR"		"TANAMBAO-DAOUD"	-13.92	50.135	5394.762									2.5		5														
		"n"	"MADAGASCAR"		"TOAMASINA"	-18.15672	49.42477	5617.778									0.9		4														
		"n"	"MADAGASCAR"		"MANAKARA PORT"	-22.14126	48.02057	5914.97									1.6		4														
		"n"	"MALDIVES"		"VILUFUSHI, THAA"	2.50356	73.30856	2508.079									2.11	135	4														
		"n"	"MALDIVES"		"VILUFUSHI, THAA"	2.50317	73.30952	2507.974									3.07	49	4														
		"n"	"MALDIVES"		"VILUFUSHI, THAA"	2.50317	73.30986	2507.936									3.57	10	4														
		"n"	"MALDIVES"		"MADIFUSHI, THAA"	2.35802	73.35587	2503.604									2.13	48	4														
		"n"	"MALDIVES"		"KOLHUFUSHI, MEEMU"	2.77183	73.4251	2493.946									2.76	23	4														
		"n"	"MALDIVES"		"KANDHOLHUDHOO, RAA"	5.61995	72.85457	2564.96									3.02	138	4														
		"n"	"MALDIVES"		"KANDHOLHUDHOO, RAA"	5.61822	72.85568	2564.822									2.72	71	4														
		"n"	"MALDIVES"		"KANDHOLHUDHOO, RAA"	5.61753	72.8562	2564.758									3.1	28	4														
		"n"	"MALDIVES"		"EYDHAFUSHI, BAA"	5.10142	73.07308	2536.667									3.04	64	4														
		"n"	"MALDIVES"		"HINNAVARU, LHAVIYANI"	5.49218	73.41317	2502.127									0.98	174	4														
		"n"	"TANZANIA"		"CHWAKA BAY RESORT HOTEL, ZANZIBAR"	-6.15563	39.43705	6357.837									2.65		5														
		"n"	"TANZANIA"		"PAJE - FLOW DEPTH ON REEF, ZANZIBAR"	-6.26048	39.5366	6348.534									1		5														
		"n"	"TANZANIA"		"BAGAMOYO - FISHING HARBOR"	-6.44017	38.91025	6419.926									3		5														
		"n"	"TANZANIA"		"MBEZI BEACH, MAINLAND TANZANIA"	-6.69817	39.22763	6389.204									3		5			8	1										
		"n"	"TANZANIA"		"KIM BEACH - AT BERM"	-6.86335	39.41087	6371.795									2.85		5														
		"n"	"COMOROS"		"MITSAMIOULI, GRANDE COMORE"	-11.3898	43.28947	6042.442									2.3		5														
		"n"	"COMOROS"		"BANGOUA KOUNI, GRANDE COMORE"	-11.36983	43.36338	6034.089									1.5		5														
		"n"	"COMOROS"		"DOMONI - SOUTH, ANJOUAN"	-12.26172	44.5326	5932.117									1.7		5														
		"n"	"COMOROS"		"ONGONI, ANJOUAN"	-12.17223	44.50653	5932.566									2.7		5														
		"n"	"INDONESIA"	"ACEH"	"ACEH, SUMATRA"	5.649	95.416	262.525									4.2		5														
		"n"	"INDONESIA"	"ACEH"	"ACEH, SUMATRA"	5.6	95.379	258.01									8.6		5														
		"n"	"INDONESIA"	"ACEH"	"ACEH, SUMATRA"	5.286	95.251	227.895									10.4		5														
		"n"	"INDONESIA"	"ACEH"	"ACEH, SUMATRA"	5.553	95.235	256.732									13.7		5														
		"n"	"INDONESIA"	"ACEH"	"ACEH, SUMATRA"	5.443	95.241	244.848									16		5														
		"n"	"INDONESIA"	"ACEH"	"ACEH, SUMATRA"	5.499	95.223	251.352									18.5		5														
		"n"	"INDONESIA"	"ACEH"	"ACEH, SUMATRA"	5.201	95.284	217.837									20		5														
		"n"	"INDONESIA"	"ACEH"	"ACEH, SUMATRA"	5.2	95.284	217.731									21		5														
		"n"	"INDONESIA"	"ACEH"	"ACEH, SUMATRA"	5.445	95.243	244.999									24.5		5														
		"n"	"INDONESIA"	"ACEH"	"ACEH, SUMATRA"	5.45	95.242	245.561									27.8		5														
		"n"	"INDONESIA"	"ACEH"	"ACEH, SUMATRA"	5.567	95.343	255.296									3.6		5														
		"n"	"INDONESIA"	"ACEH"	"ACEH, SUMATRA"	5.596	95.394	257.241									5.7		5														
		"n"	"INDONESIA"	"ACEH"	"ACEH, SUMATRA"	5.52	95.272	252.135									5.9		5														
		"n"	"INDONESIA"	"ACEH"	"ACEH, SUMATRA"	5.54	95.307	253.314									6		5														
		"n"	"INDONESIA"	"ACEH"	"ACEH, SUMATRA"	5.48	95.244	248.69									6.5		5														
		"n"	"INDONESIA"	"ACEH"	"ACEH, SUMATRA"	5.596	95.385	257.441									6.9		5														
		"n"	"INDONESIA"	"ACEH"	"ACEH, SUMATRA"	5.526	95.273	252.748									8.2		5														
		"n"	"INDONESIA"	"ACEH"	"ACEH, SUMATRA"	5.571	95.327	256.127									8.5		5														
		"n"	"INDONESIA"	"ACEH"	"ACEH, SUMATRA"	5.593	95.371	257.436									8.7		5														
		"n"	"INDONESIA"	"ACEH"	"ACEH, SUMATRA"	5.611	95.391	258.933									9.8		5														
		"n"	"INDONESIA"	"ACEH"	"ACEH, SUMATRA"	5.571	95.325	256.178									10.4		5														
		"n"	"INDONESIA"	"ACEH"	"ACEH, SUMATRA"	5.537	95.284	253.617									11		5														
		"n"	"INDONESIA"	"ACEH"	"ACEH, SUMATRA"	5.561	95.311	255.464									11.5		5														
		"n"	"INDONESIA"	"ACEH"	"ACEH, SUMATRA"	5.534	95.272	253.631									11.9		5														
		"n"	"INDONESIA"	"ACEH"	"ACEH, SUMATRA"	5.556	95.293	255.406									12.6		5														
		"n"	"INDONESIA"	"ACEH"	"ACEH, SUMATRA"	5.543	95.247	255.312									12.8		5														
		"n"	"INDONESIA"	"ACEH"	"ACEH, SUMATRA"	5.555	95.306	254.951									13		5														
		"n"	"INDONESIA"	"ACEH"	"ACEH, SUMATRA"	5.65	95.42	262.552									14.8		5														
		"n"	"INDONESIA"	"ACEH"	"ACEH, SUMATRA"	5.555	95.286	255.49									16.1		5														
		"n"	"COMOROS"		"MTSANGADOUA, MAYOTTE"	-12.71112	45.05005	5889.339									2.9		5														
		"n"	"AUSTRALIA"		"CARNARVON"	-24.9	113.65	3666.919	26	7	45	6	46	26	22	50	0.61		2														
		"n"	"SRI LANKA"		"LANCIGAMA BEACH, MARAWILA"	7.376	79.823	1832.28									2.3		5														
		"n"	"SRI LANKA"		"PATANANGALA BEACH, YALA"	6.344	81.497	1627.183									11.3		5														
		"n"	"SOUTH AFRICA"		"MOSSEL BAY (MOSSELBAAI)"	-34.178611	22.135278	8731.413	26	14	1	13	2				0.78		2		"R"												
		"n"	"USA"	"AK"	"KODIAK, AK"	57.730313	-152.513871	10956.38	27	16	0						0.13		2	70													
		"n"	"USA"	"AK"	"YAKUTAT, AK"	59.55	-139.733	11532.133	27	16	47	39	48				0.08		2	45													
		"n"	"THAILAND"		"KARON BEACH (SOUTH PART), PHUKET"	7.829	98.298	567.767									4.04		5														
		"n"	"THAILAND"		"KHAO LAK"	8.637	98.251	645.473									8.8		5														
		"n"	"THAILAND"		"PATONG BEACH, PHUKET"	7.904	98.301	575.219									4.9		5														
		"n"	"THAILAND"		"KHAO LAK"	8.729	98.226	653.636									8.86		5														
		"n"	"THAILAND"		"LAEM PAKARANG"	8.736	98.222	654.167									9.3		5														
		"n"	"INDONESIA"	"ACEH"	"LHOONG, NW. COAST OF SUMATRA"	5.283	95.247	227.709									25.5		5														
		"n"	"INDONESIA"	"ACEH"	"LABUHAN, NW COAST OF SUMATRA"	5.433	95.236	243.942									26.1		5														
		"n"	"INDONESIA"	"ACEH"	"LHOK NGA, NW. COAST OF SUMATRA"	5.451	95.243	245.637									29.7		5														
		"n"	"INDONESIA"	"ACEH"	"EAST BANDA ACEH, SUMATRA"	5.647	95.414	262.349									8.2		5														
		"n"	"INDONESIA"	"LAMPUNG"	"PANJANG, SE. SUMATRA"	-5.51	105.35	1437.816	26	4	2	3	3				0.65		2		"R"												
		"n"	"MALDIVES"		"NORTH MALE ATOLL, MALE IS."	4.17	73.513	2483.424									1.6	15	4														
		"n"	"MYANMAR (BURMA)"		"LAYYIN KWIN (AIRFIELD) VILLAGE"	15.79	94.806	1384.505									0.6		5			1	1						1	16	1		
		"n"	"SRI LANKA"		"GIN RIVER"	6.074	80.178	1765.562									2.11		5														
		"n"	"INDONESIA"	"ACEH"	"SENEBU VILLAGE, SIMEULUE"	2.557	96.301	97.537									2	1500	4														
		"n"	"INDONESIA"	"ACEH"	"LAUBANG, SIMEULUE"	2.432	96.26	107.669									1.5	500	4														
		"n"	"INDONESIA"	"ACEH"	"SUAKTIMAH, MEULABOH, SUMATRA"	4.211	96.065	101.706									15		4										3		3		
		"n"	"INDONESIA"	"ACEH"	"SKONEDA, MEULABOH, SUMATRA"	4.208	96.04	100.777									15	5000	4														
		"n"	"SRI LANKA"		"POTTUVIL"	6.875	81.844	1602.267									9	150	4														
		"n"	"THAILAND"		"BAN THUNG WA"	8.378	98.255	619.691									6.8	444	4														
		"n"	"THAILAND"		"THAI MUANG, VISITOR CENTER"	8.436	98.238	624.688									6.3	463	5														
		"n"	"THAILAND"		"KO YAO, FISHING VILLAGE"	9.222	98.375	710.168									1	0	5														
		"n"	"THAILAND"		"BAN AO KHOEI"	9.299	98.384	718.386									9.2	180	4														
		"n"	"THAILAND"		"BAN NAM KIM"	8.859	98.272	668.834									6.4	25	4														
		"n"	"SRI LANKA"		"SINNAMUHATTUVARAM"	7.173	81.86	1608.574									7	120	4														
		"n"	"INDIA"	"TAMIL NADU"	"PERIYAKALAPETTAIKUPPAM"	12.02583333	79.86638889	2008.14									6.93	400	5														
		"n"	"UK TERRITORY"		"CHAGOS ISLANDS"														5														
		"n"	"IRAN"		"GUSGAR"	25.56027	58.81188	4661.903									3.63	38	5														
		"n"	"IRAN"		"LAFI"	25.74628	57.73546	4768.406									3.56	55	5														
		"n"	"IRAN"		"POZM (23)"	25.36018	60.31382	4516.643									2.22		5														
		"n"	"IRAN"		"PASABANDAR"	25.06838	61.41687	4402.997									1.75		4														
		"n"	"INDIA"	"KERALA"	"ANDAKARANAZHI"	9.74777778	76.28416667	2277.084									3.5		4														
		"n"	"INDIA"	"KERALA"	"BEYPORE (CALICUT)"	11.22305556	75.78083333	2381.062									2		4														
		"n"	"MADAGASCAR"		"ALL OF MADAGASCAR"												5.4		5			1	1										
		"n"	"INDIA"	"ANDAMAN AND NICOBAR"	"BAMBOO FLAT (2), PORT BLAIR"	11.69955556	92.71480556	989.69									3.8	20.6	5														
		"n"	"INDIA"	"ANDAMAN AND NICOBAR"	"BRAK WATER JETTY, LITTLE ANDARNAN"	10.58166667	92.5605	882.004									13.9	135.5	5														
		"n"	"INDIA"	"ANDAMAN AND NICOBAR"	"PASSENGER JETTY, LITTLE ANDARNAN"	10.58166667	92.5605	882.004									17.3	144.8	5														
		"n"	"INDIA"	"ANDAMAN AND NICOBAR"	"BRAK WATER JETTY 2, LITTLE ANDARNAN"	10.58166667	92.5605	882.004									10.4	312	5														
		"n"	"SEYCHELLES"		"VICTORIA DOWNTOWN, MAHE ISLAND"	-4.62325	55.4587	4577.838									1.7	200	5														
		"n"	"SEYCHELLES"		"GRAND ANSE, MAHE ISLAND"	-4.67643333	55.44385	4580.518									4.3		5														
		"n"	"FRENCH SOUTHERN AND ANTARCTIC TERRITORIES"	"CROZET ARCHIPELAGO"	"LA BAIE DU MARIN, POSSESSION ISLAND"	-46.425	51.86	6999.105										225	5														
		"n"	"MALAYSIA"		"PANTAI TENGAH (LANAI HOTEL)"	6.25	99.71666667	537.438									3.66	44.5	5														
		"n"	"AUSTRALIA"		"BUNBURY"	-33.3	115.6	4554.463	26	8	10	7	11	26	21	10	0.92		2														
		"n"	"AUSTRALIA"		"VICTOR HARBOUR"	-35.56666	138.633333	6193.381						27	3	25	0.32		2														
		"n"	"INDIA"	"MAHARASHTRA"	"BANDAKHAR"	19.0718	72.8219	3052.474									3.3		5														
		"n"	"AUSTRALIA"		"FREMANTLE BOAT HARBOUR"	-32.05	115.733333	4442.775	26	7	40	6	41	27	5	35	0.4		2														
		"n"	"NEW ZEALAND"		"POUTU POINT"	-36.362	174.182	9188.5	26	21	50	20	56	27	8	40	0.14		2														
		"n"	"ANTARCTICA"		"CAPE ROBERTS (NEW ZEALAND)"	-77.03392	163.19123	9807.469	26	17	45	16	56	27	9	55	0.1		2														
		"n"	"NEW ZEALAND"		"KAIPARA"	-36.362	174.182	9188.5	26	20	47	19	48				0.22		2	78													
		"n"	"CANADA"	"BC"	"PORT HARDY, BRITISH COLUMBIA"	50.722	-127.488	12742.84	27	14	40						0.06		2														
		"n"	"SEYCHELLES"		"POINTE LA RUE, MAHE ISLAND"	-4.6762	55.5294	4571.178	26	8	16	7	17				1.39		2		"R"												
		"n"	"SEYCHELLES"		"NORTHEAST POINT, MAHE ISLAND"	-4.58478333	55.46248333	4576.663									2.2	100	5														
		"n"	"INDONESIA"	"NORTH SUMATRA"	"SIBOLGA, SUMATRA"	1.729	98.785	370.189									1.5		5														
		"n"	"INDONESIA"	"NORTH SUMATRA"	"SIBOLGA, SUMATRA"	1.729	98.785	370.189	26	2	46	1	47				1.23		2		"R"												
		"n"	"INDONESIA"	"NORTH SUMATRA"	"MUAWE VILLAGE, NIAS ISLAND"	1.396	97.17	257.87									3.8		5														
		"n"	"INDONESIA"	"NORTH SUMATRA"	"HILIRIHONO, NIAS ISLAND"	0.574	97.732	368.207									2.5	400	5														
		"n"	"MALDIVES"		"HULHUMALE, NORTH MALE"	4.201	73.545	2479.959									2.43		5														
		"n"	"MALDIVES"		"GEMENDHOO, DHAALU"	2.799	73.026	2538.195									2.74		5														
		"n"	"MALDIVES"		"GAN, LAAMU"	1.942	73.542	2485.718									2.6		5														
		"n"	"MALDIVES"		"GAN, SEENU"	0.687	73.144	2542.962									1.89		5														
		"n"	"MALDIVES"		"MARADHOO, SEENU"	0.661	73.116	2546.402									1.94		5														
		"n"	"MALDIVES"		"HITHADHOO, SEENU"	0.651	73.108	2547.42									1.3		5														
		"n"	"INDONESIA"	"ACEH"	"LEPUNG, ACEH, SUMATRA"	5.396	95.261	239.24									18.7		5														
		"n"	"SRI LANKA"		"WALIGAMA"	5.964	80.421	1737.07									4.86		5														
		"n"	"MALAYSIA"		"PENANG ISLAND"	5.326	100.196	530.742									1.4	50	10														
		"n"	"INDIA"	"TAMIL NADU"	"PULICAT LAKE LIGHT HOUSE"	13.41972222	80.32888889	2040.669									2.9	100	5														
		"n"	"INDIA"	"TAMIL NADU"	"MUTTUKADU"	12.83166667	80.2475	2014.728									4.1	30	5														
		"n"	"INDIA"	"TAMIL NADU"	"KALLAR VILLAGE"	10.82722222	79.84277778	1952.957									4.3	1500	5														
		"n"	"USA"	"NJ"	"CAPE MAY, NJ"	38.97	-74.96	15229.01	27	9	35	32	36				0.06		2														
		"n"	"BERMUDA (UK TERRITORY)"		"BERMUDA"	32.3666	-64.7	15558.977	27	5	5	28	6				0.12		2														
		"n"	"INDONESIA"	"ACEH"	"CENTER OF BANDA ACEH, SUMATRA"	5.559	95.284	255.973									12.19		4														
		"n"	"INDONESIA"	"ACEH"	"WEST COAST OF ACEH, SUMATRA"	5.452	95.244	245.712									18.79		4														
		"n"	"INDONESIA"	"ACEH"	"KRUENG RAYA PORT, SUMATRA"	5.595	95.527	254.614									5.92		4														
		"n"	"AUSTRALIA"		"PORTLAND"	-38.3434	141.6132	6585.983	26	10	48	9	49				0.85		2														
		"n"	"FRENCH POLYNESIA"	"MARQUESAS ISLANDS"	"NUKU HIVA ISLAND, MARQUESAS ISLANDS"	-8.9148	-140.0958	13818.333									0.03		2														
		"n"	"USA"	"HI"	"KAWAIHAE, HAWAII, HI"	20.0366	-155.829	11794.856	27	2	42	25	43				0.05		2														
		"n"	"USA"	"CA"	"LOS ANGELES, CA"	33.719	-118.272	14572.524	27	9	0						0.13		2														
		"n"	"CHILE"	"VALPARAISO"	"VALPARAISO"	-33.02767128	-71.62787275	16469.565	27	1	4	24	5				0.09		2														
		"n"	"INDONESIA"	"ACEH"	"CENTER OF BANDA ACEH, SUMATRA"	5.552	95.317	254.34									4.58		4														
		"n"	"INDONESIA"	"ACEH"	"CENTER OF BANDA ACEH, SUMATRA"	5.547	95.317	253.803									4.43		4														
		"n"	"INDONESIA"	"ACEH"	"CENTER OF BANDA ACEH, SUMATRA"	5.548	95.315	253.962									5.16		4														
		"n"	"INDONESIA"	"ACEH"	"BANDA ACEH"	5.56530556	95.32958333	255.449									2		5														
		"n"	"SOMALIA"		"BANDARBEYLA"	9.49316	50.81461	5025.108									8.94	48.6	5			7	1			30	1			102	3		
		"n"	"MYANMAR (BURMA)"		"AYEYARWADDY DELTA"														5			32	1			50	1		1			550	3
		"n"	"MYANMAR (BURMA)"		"RAKINE"														5			21	1										
		"n"	"INDIA"	"ANDHRA PRADESH"	"VODAREVU"	15.79188333	80.41271667	2182.954									1.78		5														
		"n"	"INDIA"	"ANDHRA PRADESH"	"PALIPAN-KOTTAPATNAM"	15.43538333	80.17621667	2179.467									2.93		5														
		"n"	"INDIA"	"TAMIL NADU"	"KOVALAM"	12.78873333	80.2539	2011.744									2.71		5														
		"n"	"INDIA"	"ANDAMAN AND NICOBAR"	"SOUTH ANDAMAN"	11.64208333	92.74861667	982.44									2.3		5														
		"n"	"INDIA"	"ANDAMAN AND NICOBAR"	"SOUTH ANDAMAN"	11.52791667	92.72561667	971.53									3.98		5														
		"n"	"KENYA"		"KILIFI BEACH"	-3.62585	39.86690741	6275.7									0.7	3	5														
		"n"	"SRI LANKA"		"TRINCOMALEE"	8.618075	81.21845	1722.667									4.4		4														
		"n"	"SRI LANKA"		"KALMUNAI KUDDI"	7.405348	81.84164	1617.214									6.2	210	4														
		"n"	"SRI LANKA"		"KORALAWELLA"	6.749667	79.88879	1810.386									4.55		4														
		"n"	"SRI LANKA"		"THIRANAGAMA"	6.11065	80.12357	1772.162									6.81		5														
		"n"	"SRI LANKA"		"GALBOKKA"	6.323317	80.03091	1786.218									4.26		5														
		"n"	"SRI LANKA"		"SEENIGAMA"	6.1661	80.08908	1776.931									5.05		5														
		"n"	"SRI LANKA"		"YALA"	6.16639	81.25503	1649.816									4.65	390	5										1		1		
		"n"	"SRI LANKA"		"BOOSA"	6.04776	80.09014	1774.702									2.5		5										1				1
		"n"	"SRI LANKA"		"KATUKURUNDA"	6.33359	79.57682	1835.914										61	5														
		"n"	"REUNION (FRENCH TERRITORY)"		"SAINTE-MARIE"	-20.893	55.5359	5148.958									2.03		5									0.5	1				
		"n"	"REUNION (FRENCH TERRITORY)"		"SAINT-GILLES"	-21.0526	55.2235	5185.916									2.44		5									0.15	1				
		"n"	"INDIA"	"KERALA"	"ERNAKULAM"	9.98	76.28	2285.109									4	1000	4														
		"n"	"INDIA"	"TAMIL NADU"	"KANYAKUMARI"	8.078	77.541	2095.167									2.4	400	5														
		"n"	"YEMEN"		"MAHFARHAN"	12.40872	54.22781	4692.444									3.14	105.6	4														
		"n"	"MALDIVES"		"LAAMU ATOLL, FONADHOO IS."	1.832	73.503	2490.917									3.3	50	4														
		"n"	"INDIA"	"ANDHRA PRADESH"	"KRISHNA DISTRICT"	16.17	81.13	2149.254											1			27	1								1		
		"n"	"INDONESIA"	"ACEH"	"E OF BANDA ACEH, SUMATRA"	5.65125	95.4231	262.625									8	4000	5										3				
		"n"	"INDIA"	"KERALA"	"ALLAPUZHA"	9.49	76.33	2264.126											1														
		"n"	"INDIA"	"TAMIL NADU"	"NAGAPATTINAM, SERUTHUR"	10.674	79.851	1945.298											1			131	3										
		"n"	"INDIA"	"KERALA"	"THIRUVANANTHAPURAM, SINGARATHOP"	8.5069	76.9569	2169.008											1														
		"n"	"OMAN"		"RAS AL JAZIRAH"	20.43837	58.84107	4437.039									1.8	29	5														
		"n"	"OMAN"		"RAS AL JAZIRAH"	20.57542	58.9317	4433.474									1.8	59	5														
		"n"	"OMAN"		"RAS AL JAZIRAH"	20.57542	58.9317	4433.474									1.5	24	5														
		"n"	"OMAN"		"RAS AL DUQM"	19.66614	57.70798	4520.285									2.3	48	5														
		"n"	"SOMALIA"		"XAAFUUN"	10.42161	51.25924	4985.977									3.55	122.6	4														
		"n"	"SOMALIA"		"XAAFUUN"	10.42515	51.25942	4985.996									4.32	509.2	5														
		"n"	"SOMALIA"		"XAAFUUN"	10.42793	51.25533	4986.473									5.49	662.5	5														
		"n"	"INDONESIA"	"ACEH"	"PULAU BREUH, SUMATRA"	5.68099	95.06124	275.924									22.2	222	4														
		"n"	"INDONESIA"	"ACEH"	"JANTANG, SUMATRA"	5.27621	95.25104	226.859									19.7	627.3	4														
		"n"	"OMAN"		"QAYSAD"	18.4239	56.62197	4587.642									1.1	162	5														
		"n"	"SOMALIA"		"FOAR"	10.31077	50.89758	5024.177									7.47	62.3	5			2	1			6	1			50	1		1
		"n"	"SOMALIA"		"FOAR"	10.31144	50.89736	5024.208									6.37	122.3	5														
		"n"	"MADAGASCAR"		"AMDINGOZABE"	-15.06193	50.35913	5410.372									1.65	102	4														
		"n"	"MADAGASCAR"		"VOHEMAR"	-13.35335	50.00787	5389.595									1.6	10	5														
		"n"	"MADAGASCAR"		"MAHAVELONA (FOUL POINTE)"	-17.67457	49.51608	5590.335									0.79	4	5														
		"n"	"INDONESIA"	"ACEH"	"KARIYA BAKTI, SUMATRA"	2.63827	95.80293	75.156									4.1	158.9	4														
		"n"	"INDONESIA"	"ACEH"	"KUALA MEURISI, SUMATRA"	4.61644	95.62812	145.974									17.2	1112.3	4														
		"n"	"INDONESIA"	"ACEH"	"KUALA MEURISI, SUMATRA"	4.61974	95.6308	146.282									13.6	1591.4	4														
		"n"	"REUNION (FRENCH TERRITORY)"		"REUNION"	-20.935	55.2847	5174.419	26	7	55	6	56				0.35		2		"R"												
		"n"	"INDIA"	"KERALA"	"NEENDAKARA"	8.93	76.54	2225.205	26	5	8	4	9				1.09		2		"R"												
		"n"	"MADAGASCAR"		"TOLAGNARO"	-25.02695	46.99611	6135.889									2.9	75	5														
		"n"	"MADAGASCAR"		"TOLAGNARO"	-25.03878	46.99558	6136.462									4.1	26	5														
		"n"	"MADAGASCAR"		"MANAKARA BE"	-22.14942	48.02202	5915.175									4.2	61	5														
		"n"	"MADAGASCAR"		"MANAKARA BE"	-22.162	48.01556	5916.321									3.5	59	5														
		"n"	"MADAGASCAR"		"MANAKARA BE"	-22.14515	48.02395	5914.812									4	30	5														
		"n"	"MALDIVES"		"VILUFUSHI, THAA"	2.50322	73.30929	2507.999									2.35	74	4														
		"n"	"MALDIVES"		"VILUFUSHI, THAA"	2.50329	73.30969	2507.955									3.7	28	4														
		"n"	"MALDIVES"		"VILUFUSHI, THAA"	2.50375	73.3096	2507.962									4.07	8	4			18	1									192	2
		"n"	"MALDIVES"		"VILUFUSHI, THAA"	2.50556	73.30728	2508.211									3.03	102	4														
		"n"	"MALDIVES"		"VILUFUSHI, THAA"	2.50247	73.30857	2508.083									3.59	163	4														
		"n"	"MALDIVES"		"HINNAVARU, LHAVIYANI"	5.49463	73.41283	2502.186									1.13	206	4														
		"n"	"MALDIVES"		"MALE, N. MALE"	4.17372	73.51788	2482.893									1.15	54	4														1
		"n"	"MALDIVES"		"EMBUDHU FINOTHU, S. MALE"	4.1801	73.52455	2482.17									2.93		4														
		"n"	"MALDIVES"		"HURAA, N. MALE"	4.33356	73.60093	2474.177									2.34	200	4														
		"n"	"TANZANIA"		"UROA TAMARIND HOTEL, ZANZIBAR"	-6.10492	39.42708	6358.159									1.5		5														
		"n"	"TANZANIA"		"BAGAMOYO - OCEANIC BAY RESORT"	-6.42835	38.9036	6420.473									3		5														
		"n"	"TANZANIA"		"BEACHCOMBER HOTEL"	-6.67942	39.22458	6389.241									3		5														
		"n"	"TANZANIA"		"KONDUCHI BEACH, MAINLAND TANZANIA"	-6.66848	39.21867	6389.715									3.5		5											1	1		
		"n"	"COMOROS"		"MIRONTSI, ANJOUAN"	-12.15693	44.41515	5941.847									2.1		5														
		"n"	"INDONESIA"	"ACEH"	"ACEH, SUMATRA"	5.65	95.422	262.511									7.5		5														
		"n"	"INDONESIA"	"ACEH"	"ACEH, SUMATRA"	5.286	95.244	228.125									11.1		5														
		"n"	"INDONESIA"	"ACEH"	"ACEH, SUMATRA"	5.429	95.243	243.3									16.5		5														
		"n"	"INDONESIA"	"ACEH"	"ACEH, SUMATRA"	5.381	95.26	237.677									17.8		5														
		"n"	"INDONESIA"	"ACEH"	"ACEH, SUMATRA"	5.497	95.228	250.985									21.5		5														
		"n"	"INDONESIA"	"ACEH"	"ACEH, SUMATRA"	5.428	95.24	243.287									21.5		5														
		"n"	"INDONESIA"	"ACEH"	"ACEH, SUMATRA"	5.631	95.397	260.971									21.8		5														
		"n"	"INDONESIA"	"ACEH"	"ACEH, SUMATRA"	5.464	95.247	246.897									23.1		5														
		"n"	"INDONESIA"	"ACEH"	"ACEH, SUMATRA"	5.463	95.242	246.943									26.5		5														
		"n"	"INDONESIA"	"ACEH"	"ACEH, SUMATRA"	5.433	95.231	244.098									27.1		5														
		"n"	"INDONESIA"	"ACEH"	"ACEH, SUMATRA"	5.43	95.233	243.717									27.6		5														
		"n"	"INDONESIA"	"ACEH"	"ACEH, SUMATRA"	5.557	95.32	254.8									4		5														
		"n"	"INDONESIA"	"ACEH"	"ACEH, SUMATRA"	5.572	95.344	255.811									5.1		5														
		"n"	"INDONESIA"	"ACEH"	"ACEH, SUMATRA"	5.556	95.315	254.822									7.2		5														
		"n"	"INDONESIA"	"ACEH"	"ACEH, SUMATRA"	5.597	95.385	257.55									7.4		5														
		"n"	"INDONESIA"	"ACEH"	"ACEH, SUMATRA"	5.558	95.311	255.142									7.8		5														
		"n"	"INDONESIA"	"ACEH"	"ACEH, SUMATRA"	5.595	95.372	257.629									8.2		5														
		"n"	"INDONESIA"	"ACEH"	"ACEH, SUMATRA"	5.61	95.389	258.869									8.5		5														
		"n"	"INDONESIA"	"ACEH"	"ACEH, SUMATRA"	5.487	95.269	248.696									9.2		5														
		"n"	"INDONESIA"	"ACEH"	"ACEH, SUMATRA"	5.578	95.344	256.458									9.4		5														
		"n"	"INDONESIA"	"ACEH"	"ACEH, SUMATRA"	5.575	95.325	256.609									9.5		5														
		"n"	"INDONESIA"	"ACEH"	"ACEH, SUMATRA"	5.481	95.244	248.796									9.8		5														
		"n"	"INDONESIA"	"ACEH"	"ACEH, SUMATRA"	5.588	95.358	257.2									10		5														
		"n"	"INDONESIA"	"ACEH"	"ACEH, SUMATRA"	5.561	95.311	255.464									11.2		5														
		"n"	"INDONESIA"	"ACEH"	"ACEH, SUMATRA"	5.597	95.376	257.753									11.5		5														
		"n"	"INDONESIA"	"ACEH"	"ACEH, SUMATRA"	5.478	95.24	248.599									11.6		5														
		"n"	"INDONESIA"	"ACEH"	"ACEH, SUMATRA"	5.571	95.321	256.28									12.2		5														
		"n"	"INDONESIA"	"ACEH"	"ACEH, SUMATRA"	5.534	95.292	253.075									13.8		5														
		"n"	"INDONESIA"	"ACEH"	"ACEH, SUMATRA"	5.61	95.397	258.693									16.2		5														
		"n"	"INDONESIA"	"ACEH"	"ACEH, SUMATRA"	5.478	95.248	248.357									17		5														
		"n"	"INDONESIA"	"ACEH"	"ACEH, SUMATRA"	5.478	95.241	248.568									18.4		5														
		"n"	"INDONESIA"	"ACEH"	"ACEH, SUMATRA"	5.471	95.253	247.461									19.8		5														
		"n"	"INDONESIA"	"ACEH"	"ACEH, SUMATRA"	5.489	95.235	249.92									20.4		5														
		"n"	"COMOROS"		"MTAKOUDJA, MOHELI"	-12.26802	43.70543	6019.83									2.8		5														
		"n"	"COMOROS"		"FOMBONI OUEST, MOHELI"	-12.2794	43.73847	6016.619									2.1		5														
		"n"	"COMOROS"		"MZOUAZIA, MAYOTTE"	-12.92863	45.10238	5889.709									1.3		5														
		"n"	"ARGENTINA"		"MAR DEL PLATA 1"	-38.00015278	-57.53850556	15313.992	27	0	4	23	5	27	7	56	0.09		2														
		"n"	"ARGENTINA"		"USHUAIA, TIERRA DEL FUEGO"	-54.805	-68.295	14118.997	26	23	15	22	16	27	6	45	0.09		2														
		"n"	"MALAYSIA"		"SG UDANG"	5.8	100.3666667	571.123									1.5		5														
		"n"	"SRI LANKA"		"WAIKKALA"	7.281	79.841	1827.948									1.6		5														
		"n"	"SRI LANKA"		"NEGOMBO"	7.235	79.841	1826.806									1.6		5														
		"n"	"SRI LANKA"		"USWETTAKEIYAWA"	7.086	79.828	1824.602									2.6		5														
		"n"	"SOUTH AFRICA"		"SALDANHA"	-33.017	17.95	9089.53	26	15	28	14	29	27	7	1	0.37		2		"F"												
		"n"	"THAILAND"		"KHAO LAK"	8.64	98.25	645.73									9.91		5														
		"n"	"THAILAND"		"KHAO LAK"	8.726	98.232	653.599									6.24		5														
		"n"	"THAILAND"		"KHAO LAK"	8.184	98.292	602.229									4.83		5														
		"n"	"THAILAND"		"FRIENDSHIP BEACH HOTEL, PHUKET"	7.796	98.34	566.811									2.35		5														
		"n"	"THAILAND"		"BAN KAO LAK"	8.611	98.238	642.263									7.8		5														
		"n"	"INDONESIA"	"ACEH"	"LHOK NGA, NW. COAST OF SUMATRA"	5.445	95.243	244.999									24.5		5														
		"n"	"MALDIVES"		"NORTH MALE ATOLL, HUHULE IS."	4.195	73.526	2482.051									2	20	4														
		"n"	"MALDIVES"		"NORTH MALE ATOLL, KUDA HURAA IS."	4.327	73.597	2474.59									1.5	0	4														
		"n"	"MYANMAR (BURMA)"		"MYAW YIT GYI PAGODA"	14.088	98.07	1216.038									1.4		5														
		"n"	"MYANMAR (BURMA)"		"KYAUKMATTAT VILLAGE"	13.581	98.151	1163.078									0.9		5														
		"n"	"MYANMAR (BURMA)"		"THANDER KYUN VILLAGE"	12.494	98.515	1056.532									0.7		5														
		"n"	"MYANMAR (BURMA)"		"THIT POKE VILLAGE"	15.783	94.978	1382.298									1.7		5													2	1
		"n"	"SRI LANKA"		"DICKWELLA"	5.963	80.693	1707.316									5.54		5														
		"n"	"INDONESIA"	"ACEH"	"GANTING, SIMEULUE"	2.549	96.335	100.263									1.75	1500	4														1
		"n"	"SRI LANKA"		"KATUKURUNDA (KALUTARA S.)"	6.566	79.951	1799.745									4.5	120	4														
		"n"	"SRI LANKA"		"RATHGAMA/DOANDUWA"	6.086	80.146	1769.272									4.5	50	4														
		"n"	"THAILAND"		"CHALONG"	7.821	98.345	569.495									4		4														
		"n"	"THAILAND"		"BAN PAK CHOK"	9.16	98.271	699.396									6.6	236	4														
		"n"	"THAILAND"		"BAN THALE NOK"	9.46	98.437	737.052									6.2	121	4														
		"n"	"INDIA"	"TAMIL NADU"	"TARANGAMBADI"	11.02555556	79.85583333	1960.682									8.56	100	5														
		"n"	"IRAN"		"TISS HARBOR"	25.35523	60.60022	4490.7									2.73		4														
		"n"	"ANTARCTICA"		"SCOTT BASE (NEW ZEALAND)"	-77.85	166.767	9921.178	27	0	30	23	1				0.05		2														
		"n"	"INDONESIA"	"ACEH"	"SEMEN ANDALAS CEMENT PLANT, SUMATRA"	5.451	95.245	245.576									34.5		5				3					100	4	35	1		
		"n"	"INDIA"	"KERALA"	"PARAVUR"	8.81166667	76.64861111	2210.297									2.5		4														
		"n"	"INDIA"	"KERALA"	"ALLEPPEY"	9.49444444	76.31833333	2265.493									3		4														
		"n"	"INDIA"	"ANDAMAN AND NICOBAR"	"VIJAYA NAGAR, HAVELOCK ISLAND"	12.00111111	93.00602778	1010.532									3.5	200	5														
		"n"	"INDIA"	"ANDAMAN AND NICOBAR"	"GANDHI GHAT JETTY, BARATONG"	12.3025	92.78933333	1049.668									2.5	36.4	5														
		"n"	"INDIA"	"ANDAMAN AND NICOBAR"	"BUTTERFLY BAY, LITTLE ANDAMAN"	10.66544444	92.57469444	889.799									10.5	88.7	5														
		"n"	"SEYCHELLES"		"ANSE FORBANS, MAHE ISLAND"	-4.78065	55.52328333	4573.946									2.8	20	5														
		"n"	"SEYCHELLES"		"ANSE  LA MOUCHE, MAHE ISLAND"	-4.7396	55.49031667	4576.714									3.5	250	5														
		"n"	"AUSTRALIA"		"MACQUIRE ISLAND, TASMANIA"	-54.5	158.933333	8615.946						26	22	9	0.09		2														
		"n"	"AUSTRALIA"		"BOWEN"	-20.016667	148.25	6278.405						27	20	10	0.07		2														
		"n"	"AUSTRALIA"		"THEVENARD"	-32.1489	133.6413	5596.957						27	0	7	0.09		2														
		"n"	"INDIA"	"GUJARAT"	"OKHA, GUJARAT"	22.5	69.1	3582.721	26	9	3	8	4				0.23		2		"R"												
		"n"	"BRAZIL"		"NATAL"	-5.75	-35.2	14600.321	26	23	9	22	10	27	2	7	0.09		2														
		"n"	"BRAZIL"		"CANANEIA"	-25.017	-47.925	15464.936	27	0	48	23	49	27	6	38	0.16		2														
